안전시설명,안전시설전화번호,소재지도로명주소,소재지지번주소,위도,경도,현존주소여부
경북슈퍼,031-582-3224,경기도 가평군 가평읍 각담말길 29,경기도 가평군 가평읍 마장리 322-6,37.86070122,127.5141892,S
우리자동차운전학원,031-582-0769,경기도 가평군 가평읍 태봉두밀로 34-71,경기도 가평군 가평읍 상색리 171-1,37.80479081,127.486086,S
경희대튼튼체육관,031-582-6943,경기도 가평군 가평읍 석봉로 146,경기도 가평군 가평읍 읍내리 329-21,37.82807178,127.5115787,S
한마음약국,031-582-2173,경기도 가평군 가평읍 연인1길 1,경기도 가평군 가평읍 읍내리 476-7,37.82928827,127.5136089,S
은혜약국,031-581-7227,경기도 가평군 가평읍 연인길 3,경기도 가평군 가평읍 읍내리 478-23,37.82834975,127.5139659,S
가평충효체육관,031-582-9466,경기도 가평군 가평읍 석봉로 168,경기도 가평군 가평읍 읍내리 493-6,37.8300387,127.5109107,S
한성슈퍼,,경기도 가평군 가평읍 석봉로 163,경기도 가평군 가평읍 읍내리 495-32,37.82965283,127.5105559,S
가평우체국,031-582-2009,경기도 가평군 가평읍 보납로 2,경기도 가평군 가평읍 읍내리 495-6,37.83095836,127.5107466,S
제일분식,,경기도 가평군 가평읍 향교로 34-1,경기도 가평군 가평읍 읍내리 530-1,37.83040459,127.5096296,S
짬뽕늬우스,031-582-5552,경기도 가평군 가평읍 향교로 4,경기도 가평군 가평읍 읍내리 535,37.8295643,127.5101918,S
용인대태권도아카데미,031-582-7479,경기도 가평군 가평읍 석봉로191번길 16,경기도 가평군 가평읍 읍내리 584-7,37.83204197,127.5080732,S
GS25가평중앙점,031-581-0078,경기도 가평군 가평읍 석봉로 209,경기도 가평군 가평읍 읍내리 637-6,37.83373094,127.5091866,S
원방의 집,031-581-1435,경기도 가평군 가평읍 호반로 2135,경기도 가평군 가평읍 이화리 118,37.78093163,127.5081111,S
예수의 집,031-582-8179,경기도 가평군 가평읍 태봉안길 80-50,경기도 가평군 가평읍 하색리 630,37.8092089,127.483026,S
백둔리상신노인전문요양원,031-582-9080,경기도 가평군 북면 백둔로 380-102,경기도 가평군 북면 백둔리 340-1,37.90391655,127.46455,S
북면어린이집,031-582-8357,경기도 가평군 북면 석장모루길 10,경기도 가평군 북면 이곡리 11-6,37.87936569,127.5469626,S
북면우체국,031-582-0565,경기도 가평군 북면 가화로 967,경기도 가평군 북면 이곡리 2-5,37.88214814,127.5472672,S
은선상회,031-582-0047,경기도 가평군 북면 가화로 943,경기도 가평군 북면 이곡리 67-19,37.88014471,127.5460476,S
성라원,031-585-3323,경기도 가평군 상면 물골길 262-23,경기도 가평군 상면 봉수리 49-4,37.84133707,127.3033497,S
상면우체국,031-585-2000,경기도 가평군 상면 청군로 1107,경기도 가평군 상면 연하리 174-10,37.80500817,127.3563671,S
모범약국,031-585-9630,경기도 가평군 상면 청군로 696,경기도 가평군 상면 임초리 412-5,37.77393176,127.3719847,S
설악실버타운,031-585-6672,경기도 가평군 설악면 봉미산안길 116-15,경기도 가평군 설악면 설곡리 239-1,37.61592311,127.5304946,S
용한약국,031-584-7322,경기도 가평군 설악면 신천중앙로 103,경기도 가평군 설악면 신천리 412-11,37.67705705,127.492001,S
설악우체국,031-584-7060,경기도 가평군 설악면 신천중앙로 109,경기도 가평군 설악면 신천리 433-8,37.67724925,127.4912768,S
설악현무체육관,031-584-8201,경기도 가평군 설악면 자잠로 28-8,경기도 가평군 설악면 신천리 443-7,37.6795263,127.4896707,S
gs25편의점,031-585-8303,경기도 가평군 설악면 신천중앙로 129,경기도 가평군 설악면 신천리 458-4,37.67777915,127.4895006,S
이레요양원,031-585-0947,경기도 가평군 설악면 유명로 1277-26,경기도 가평군 설악면 천안리 415-3,37.64864104,127.4742286,S
명지실버하우스,02-325-9451,경기도 가평군 조종면 명지산로 655-25,경기도 가평군 조종면 상판리 17,37.92349765,127.3937829,S
노병사의집,031-585-7460,경기도 가평군 조종면 운악청계로491번길 106,경기도 가평군 조종면 신상리 518-5,37.8538674,127.3467829,S
가평꽃동네노인요양원,031-589-0225,,경기도 가평군 조종면 운악리 540-2,37.88483091,127.3503712,S
또래문구,,경기도 가평군 조종면 조종새싹로 34,경기도 가평군 조종면 현리 233-12,37.82167744,127.3496774,S
서울프라자약국,031-585-1007,경기도 가평군 조종면 현창로38번길 4-1,경기도 가평군 조종면 현리 265-2,37.81845492,127.3487083,S
지연미용실,031-585-0143,경기도 가평군 조종면 조종새싹로 26-1,경기도 가평군 조종면 현리 280-3번지,37.82101105,127.349572,S
힘찬체육관,031-584-4062,,경기도 가평군 조종면 현리 283-3,37.82111876,127.3497088,S
미니스톱,031-584-2976,,경기도 가평군 청평면 대성리 396,37.68152856,127.3781468,S
휠라코리아 대성상설,031-585-6929,경기도 가평군 청평면 경춘로 99,경기도 가평군 청평면 대성리 399,37.68496952,127.3783681,S
GS25 대성리점,031-584-2370,경기도 가평군 청평면 경춘로 99,경기도 가평군 청평면 대성리 399,37.68496952,127.3783681,S
대성마트,031-584-4637,경기도 가평군 청평면 경춘로 61,경기도 가평군 청평면 대성리 399-51,37.68150337,127.3775685,S
상천마트,031-584-0823,,경기도 가평군 청평면 상천리 1354-4,37.769294,127.4588883,S
CU청평역점,031-584-6934,경기도 가평군 청평면 잠곡로 36,경기도 가평군 청평면 청평리 388-10,37.73710283,127.422592,S
알파문구,031-584-8754,경기도 가평군 청평면 청평중앙로72번길 16,경기도 가평군 청평면 청평리 389-1,37.73807636,127.42245,S
미진사세탁,031-584-8490,경기도 가평군 청평면 잠곡로 15,경기도 가평군 청평면 청평리 397-4,37.73707477,127.4203456,S
청평우체국,031-584-2002,경기도 가평군 청평면 잠곡로 19,경기도 가평군 청평면 청평리 397-5,37.73707312,127.4208107,S
용인대화랑체육관,031-584-6378,경기도 가평군 청평면 잠곡로 22-1,경기도 가평군 청평면 청평리 403-10,37.73652247,127.4211139,S
바이크온,031-584-4270,경기도 가평군 청평면 여울길 36-25,경기도 가평군 청평면 청평리 424-6번지,37.73599061,127.4186492,S
세븐일레븐청평터미널점,031-585-5069,경기도 가평군 청평면 청평중앙로 52,경기도 가평군 청평면 청평리 432-29,37.73791356,127.4200894,S
가야편의점,031-962-9116,경기도 고양시 덕양구 벽제관로 33-10,경기도 고양시 덕양구 고양동 235-4,37.70326259,126.9003379,S
행운공인부동산,031-964-3100,,경기도 고양시 덕양구 고양동 719,37.71031028,126.9028685,S
아이모드 안경,031-969-2580,경기도 고양시 덕양구 푸른마을로 6,경기도 고양시 덕양구 고양동 721,37.70876962,126.9028592,S
아이원마트,031-962-9712,경기도 고양시 덕양구 푸른마을로 56,경기도 고양시 덕양구 고양동 730,37.71298046,126.906891,S
통일로약국,031-969-3636,경기도 고양시 덕양구 통일로 772,경기도 고양시 덕양구 관산동 227-11,37.68784685,126.8647601,S
대가떡집,031-964-1660,경기도 고양시 덕양구 통일로 798,경기도 고양시 덕양구 관산동 231-41,37.68890713,126.8623433,S
와와109 문방구,031-962-6643,,경기도 고양시 덕양구 관산동 996,37.69223464,126.8648427,S
내곡슈퍼,031-000-0000,경기도 고양시 덕양구 내곡길70번길 3,경기도 고양시 덕양구 내곡동 44-2번지,37.64335247,126.810071,S
문구프라자,031-962-3660,경기도 고양시 덕양구 유산길 6,경기도 고양시 덕양구 내유동 646-24,37.72526464,126.8440125,S
건강드림약국,031-965-7582,경기도 고양시 덕양구 도래울로 52,경기도 고양시 덕양구 도내동 1020번지 도래울아이랑소아청소년과의원센터프라자 1층 102호,37.63024435,126.8694548,S
도래울떡방,031-907-5988,경기도 고양시 덕양구 도래울1로 57,경기도 고양시 덕양구 도내동 1091번지 태종빌딩 1층 101호,37.62857711,126.8690613,S
GS25 편의점(삼송점),02-381-6867,경기도 고양시 덕양구 삼송로 191,경기도 고양시 덕양구 삼송동 24-35,37.65380379,126.8949439,S
코사마트(미도슈퍼),031-962-2593,,경기도 고양시 덕양구 성사동 422-2,37.65633065,126.8430375,S
어울림마트,031-966-8847,,경기도 고양시 덕양구 성사동 731,37.65168774,126.834458,S
복지슈퍼,031-968-6533,경기도 고양시 덕양구 호국로716번길 7-18,경기도 고양시 덕양구 성사동 736-14,37.6516853,126.8327583,S
용문슈퍼,02-353-5432,,경기도 고양시 덕양구 용두동 19,,,F
휠라(원당점),031-967-0100,,경기도 고양시 덕양구 주교동,,,F
코사마트(원당점),031-964-3869,경기도 고양시 덕양구 원당로101번길 52-15,경기도 고양시 덕양구 주교동 573-12,37.66310474,126.8356789,S
원당문구,031-968-2287,경기도 고양시 덕양구 마상로107번길 7,경기도 고양시 덕양구 주교동 575-5,37.66118544,126.8355132,S
두배로마트(주교점),031-968-7767,경기도 고양시 덕양구 마상로 100,경기도 고양시 덕양구 주교동 581-17,37.66113,126.8345387,S
GS25(고양원당점),031-962-1865,경기도 고양시 덕양구 호국로779번길 29,경기도 고양시 덕양구 주교동 611,37.65676848,126.8339592,S
경성부동산,031-979-0222,경기도 고양시 덕양구 토당로 133-2,경기도 고양시 덕양구 토당동 248-6,37.62683211,126.8178507,S
형제문구,031-973-0160,경기도 고양시 덕양구 토당로 101-7,경기도 고양시 덕양구 토당동 296-8,37.62405588,126.8170646,S
신선마트,031-972-0858,경기도 고양시 덕양구 행신로97번길 4,경기도 고양시 덕양구 토당동 407-8,37.61782687,126.8266738,S
코사마트,031-979-9470,경기도 고양시 덕양구 지도로 40,경기도 고양시 덕양구 토당동 877-1,37.62052687,126.8247305,S
행신마트,031-972-9733,,경기도 고양시 덕양구 행신동 1074,37.61974695,126.8465706,S
365두배로마트,031-978-2319,경기도 고양시 덕양구 소원로181번길 20,경기도 고양시 덕양구 행신동 1090,37.61407744,126.8447816,S
고양홈마트,031-907-0777,경기도 고양시 덕양구 소원로 267,경기도 고양시 덕양구 행신동 1096,37.61488615,126.8499786,S
동부할인마트,031-972-6955,경기도 고양시 덕양구 행신로311번길 42,경기도 고양시 덕양구 행신동 213-6,37.62302296,126.8439245,S
보광당,031-972-2002,경기도 고양시 덕양구 행신로 155-6,경기도 고양시 덕양구 행신동 621-5,37.61935845,126.832764,S
이조약국,031-972-4426,경기도 고양시 덕양구 행신로143번길 72-1,경기도 고양시 덕양구 행신동 634-35,37.62255482,126.8313181,S
홈플러스,031-938-7830,경기도 고양시 덕양구 용현로 49-21,경기도 고양시 덕양구 행신동 749,37.61694647,126.834593,S
삼보약국,031-971-3306,,경기도 고양시 덕양구 행신동 771,37.61602317,126.8379251,S
삼보부동산,031-970-7733,,경기도 고양시 덕양구 행신동 771,37.61602317,126.8379251,S
부흥마트,031-971-1735,,경기도 고양시 덕양구 행신동 773,37.61724803,126.8375939,S
동광부동산,031-971-8787,,경기도 고양시 덕양구 행신동 773,37.61724803,126.8375939,S
굿모닝안경,031-938-9412,,경기도 고양시 덕양구 행신동 783,37.6159995,126.840349,S
가나부동산,031-979-7272,,경기도 고양시 덕양구 행신동 788,37.61355185,126.8425402,S
하나로약국,031-971-9052,경기도 고양시 덕양구 충장로 134,경기도 고양시 덕양구 행신동 943-1,37.62429889,126.8349276,S
태양문구,031-978-5916,경기도 고양시 덕양구 행신로311번길 53,경기도 고양시 덕양구 행신동 961,37.62280595,126.8433472,S
삼천리자전거,031-974-3526,경기도 고양시 덕양구 충장로 118-30,경기도 고양시 덕양구 행신동 983,37.62083195,126.8362041,S
가람문구,031-938-1005,경기도 고양시 덕양구 충장로 118-54,경기도 고양시 덕양구 행신동 987,37.62147106,126.8357949,S
정성가든,031-972-7902,경기도 고양시 덕양구 행주로17번길 82,경기도 고양시 덕양구 행주내동 174-2,37.60236205,126.8239584,S
대성문구,02-3158-4253,,경기도 고양시 덕양구 화전동,,,F
코사마트(새마을점),02-3158-1253,경기도 고양시 덕양구 중앙로78번안길 67,경기도 고양시 덕양구 화전동 159-6,37.59980945,126.8777077,S
코사마트(화전점),02-3158-5162,경기도 고양시 덕양구 화랑로 74-1,경기도 고양시 덕양구 화전동 562-48,37.60499807,126.868594,S
나들가게(세띠앙분식),031-978-8555,경기도 고양시 덕양구 화중로 32-17,경기도 고양시 덕양구 화정동 1002-7,37.63015862,126.8310401,S
이화문구,031-964-6332,경기도 고양시 덕양구 백양로 159,경기도 고양시 덕양구 화정동 885-12,37.639832,126.8351759,S
코사마트(용정점),031-964-2868,경기도 고양시 덕양구 화중로151번길 35-2,경기도 고양시 덕양구 화정동 917-15,37.64058202,126.8304609,S
웨이팅문구,031-973-6185,경기도 고양시 덕양구 화신로 319,경기도 고양시 덕양구 화정동 946,37.63252113,126.8262652,S
코사마트(봉봉점),031-972-0083,경기도 고양시 덕양구 화신로 234,경기도 고양시 덕양구 화정동 993,37.63047111,126.8353216,S
용호태권도,031-903-7123,,경기도 고양시 일산동구 마두동,,,F
경희휘트니스태권도,031-905-9535,,경기도 고양시 일산동구 마두동 402,,,F
쌍용부동산,031-902-2300,,경기도 고양시 일산동구 마두동 717,37.65887986,126.791207,S
신아어린이집,031-907-2006,,경기도 고양시 일산동구 마두동 732번지 백마마을한양금호3단지아파트,37.65510507,126.7913537,S
동심어린이집,031-905-5114,,경기도 고양시 일산동구 마두동 734,37.6560185,126.7932889,S
우주약국,031-907-0567,,경기도 고양시 일산동구 마두동 744 백마5단지 설촌상가,,,F
떡빚는고을,031-903-6655,경기도 고양시 일산동구 강송로 169,경기도 고양시 일산동구 마두동 785,37.65373934,126.7835385,S
홈플러스마두점,031-901-8485,,경기도 고양시 일산동구 마두동 790-3,,,F
성심부동산,031-901-3344,,경기도 고양시 일산동구 마두동 794,37.65529409,126.7814374,S
부동산뱅크,031-903-5555,경기도 고양시 일산동구 강석로 141,경기도 고양시 일산동구 마두동 800 마두파킹프라자,37.65310729,126.7780217,S
보람미용실,031-904-8790,경기도 고양시 일산동구 산두로 87,경기도 고양시 일산동구 마두동 828,37.66562941,126.7869603,S
엔젤24시,031-904-0031,경기도 고양시 일산동구 일산로330번길 3,경기도 고양시 일산동구 마두동 851-4,37.66490372,126.7842876,S
르노삼성(마두점),031-901-4324,경기도 고양시 일산동구 일산로286번길 26-2,경기도 고양시 일산동구 마두동 905,37.66154891,126.7874368,S
고봉이용원,031-917-7314,경기도 고양시 일산동구 문봉길 93,경기도 고양시 일산동구 문봉동 204-3,37.70620892,126.8132309,S
cu편의점(백석호수점),031-903-7117,,경기도 고양시 일산동구 백석동,,,F
삼성전자,031-905-3577,,경기도 고양시 일산동구 백석동,,,F
쿠쿠홈시스,,,경기도 고양시 일산동구 백석동,,,F
한국야쿠르트 서경영업소,031-904-4350,,경기도 고양시 일산동구 백석동,,,F
탑모터스,031-922-0031,,경기도 고양시 일산동구 백석동,,,F
그린마트,031-902-3533,,경기도 고양시 일산동구 백석동,,,F
백석튼튼태권도,,,경기도 고양시 일산동구 백석동,,,F
GS25시(일산테크빌점),031-907-6804,경기도 고양시 일산동구 일산로 142,경기도 고양시 일산동구 백석동 1141-2,37.64980251,126.7936804,S
민속떡집,031-903-3898,,경기도 고양시 일산동구 백석동 1186,37.65068931,126.7907883,S
한국유통,031-907-7701,,경기도 고양시 일산동구 백석동 1190,37.65082703,126.7872411,S
평화몬테소리,031-905-2929,,경기도 고양시 일산동구 백석동 1190번지 백송마을삼호5단지아파트,37.65082703,126.7872411,S
금계문구,031-903-7496,경기도 고양시 일산동구 강송로125번길 29,경기도 고양시 일산동구 백석동 1220-3,37.64921844,126.7845942,S
우체국(백석동),031-901-0100,경기도 고양시 일산동구 강송로 123,경기도 고양시 일산동구 백석동 1223,37.6497164,126.7859072,S
이전유통,031-908-0020,경기도 고양시 일산동구 백석로86번길 58,경기도 고양시 일산동구 백석동 1259,37.64591169,126.7894082,S
모퉁이네식당,031-905-0039,,경기도 고양시 일산동구 백석동 1343,37.64221921,126.7852945,S
이페니아미용실,031-903-7123,,경기도 고양시 일산동구 백석동 1343,37.64221921,126.7852945,S
동녁어린이집,031-903-2760,경기도 고양시 일산동구 강촌로26번길 7-14,경기도 고양시 일산동구 백석동 1413-3,37.6465518,126.7798997,S
잉글리쉬무무학원,,경기도 고양시 일산동구 강촌로26번길 16-4,경기도 고양시 일산동구 백석동 1451-10번지 1층,37.64585701,126.7793466,S
진원체육관,031-964-1120,,경기도 고양시 일산동구 사리현동,,,F
gs25편의점(고양식사점),031-966-3882,,경기도 고양시 일산동구 식사동,,,F
CU 식사자이점,070-815-4090,경기도 고양시 일산동구 위시티4로 80,경기도 고양시 일산동구 식사동 1487 위시티 상가 109호,37.68343956,126.8119625,S
성우카센터,031-963-6844,경기도 고양시 일산동구 고양대로1037번길 5,경기도 고양시 일산동구 식사동 619-38,37.67218884,126.8078768,S
청구약국,031-904-5882,경기도 고양시 일산동구 노루목로 99,경기도 고양시 일산동구 장항동 883 청구(아) 111,37.65018453,126.7761268,S
크린토피아 일산저동점,031-919-4560,,경기도 고양시 일산동구 정발산동,,,F
용인타이곤태권도장,031-916-7677,,경기도 고양시 일산동구 정발산동,,,F
용인대타이곤태권도,031-916-7677,,경기도 고양시 일산동구 정발산동,,,F
우체국(정발산점),031-911-5005,경기도 고양시 일산동구 일산로 425,경기도 고양시 일산동구 정발산동 1206,37.67226377,126.7790407,S
한솔하이퍼마트,031-914-9569,경기도 고양시 일산동구 무궁화로187번길 43,경기도 고양시 일산동구 정발산동 1225-3,37.67282494,126.7803992,S
현대트랜스,031-911-9000,경기도 고양시 일산동구 산두로201번길 26,경기도 고양시 일산동구 정발산동 1244-9,37.67385321,126.7810195,S
저동수퍼,031-913-9445,경기도 고양시 일산동구 대산로11번길 24-1,경기도 고양시 일산동구 정발산동 689번지,37.66857776,126.7737926,S
"진영수퍼, 문구",031-918-9636,경기도 고양시 일산동구 대산로11번길 51,경기도 고양시 일산동구 정발산동 700-10,37.66740559,126.7733202,S
gs칼텍스(일산그린점),031-977-0305,,경기도 고양시 일산동구 중산동,,,F
해피마트,031-975-8438,,경기도 고양시 일산동구 중산동,,,F
지에스칼텍스,,,경기도 고양시 일산동구 중산동,,,F
중산우체국,,,경기도 고양시 일산동구 중산동,,,F
삼품하트마트,031-976-4172,,경기도 고양시 일산동구 중산동 1554-2,37.6944873,126.7821032,S
우체국(중산점),031-977-2006,경기도 고양시 일산동구 중산로 226,경기도 고양시 일산동구 중산동 1573-3,37.69196147,126.7804327,S
코사마트(중산2호점),031-976-8023,,경기도 고양시 일산동구 중산동 1576 중산 12단지,37.68715253,126.7816035,S
하눌문구팬시,031-975-8338,,경기도 고양시 일산동구 중산동 1680,37.68040976,126.7797077,S
하늘문구팬시,031-975-8338,경기도 고양시 일산동구 중산로 103,경기도 고양시 일산동구 중산동 1691번지,37.68115975,126.7808731,S
제일공인중개사,031-975-4433,,경기도 고양시 일산동구 중산동 1800,37.67696503,126.7877663,S
경희대하늘태권도,031-976-7676,,경기도 고양시 일산동구 중산동 401호,,,F
석사중산태권도,031-976-4538,,경기도 고양시 일산동구 중산동 4층,,,F
동방태권도,031-976-0777,경기도 고양시 일산동구 중산로 149,경기도 고양시 일산동구 중산동 스카이빌딩 2층,37.68540303,126.7807357,S
중앙마트,031-908-9380,,경기도 고양시 일산동구 풍동,,,F
다솜분식,031-908-8919,경기도 고양시 일산동구 숲속마을2로 147,경기도 고양시 일산동구 풍동 1247,37.67232426,126.7974257,S
우체국(풍동),031-901-2106,경기도 고양시 일산동구 숲속마을로 56,경기도 고양시 일산동구 풍동 1270,37.66754847,126.7970421,S
GS25시(풍동태성점),031-913-3420,경기도 고양시 일산동구 숲속마을로 26,경기도 고양시 일산동구 풍동 1278,37.66723891,126.8003752,S
홈플러스 익스프레스,,경기도 고양시 일산동구 숲속마을로 40,경기도 고양시 일산동구 풍동 1279-1번지,37.66732627,126.7987882,S
뜨란채문구,031-901-9921,경기도 고양시 일산동구 숲속마을로 49-32,경기도 고양시 일산동구 풍동 1285-1,37.66571022,126.7968772,S
해봄약국,031-907-3621,경기도 고양시 일산동구 숲속마을1로 29-30,경기도 고양시 일산동구 풍동 1354,37.66407108,126.7972331,S
대한태권도키즈센터,031-906-0808,,경기도 고양시 일산동구 풍동 7층,,,F
비룡태권도,031-903-0055,경기도 고양시 일산동구 숲속마을로 49-32,경기도 고양시 일산동구 풍동 그린프라자 3층,37.66571022,126.7968772,S
아이태권스쿨,031-901-9399,경기도 고양시 일산동구 숲속마을로 44,경기도 고양시 일산동구 풍동 미래타워 5층,37.66735229,126.7982101,S
고양주공태권도체육관,031-906-6007,경기도 고양시 일산동구 숲속마을1로 71,경기도 고양시 일산동구 풍동 샘터 17 빌딩,37.66726475,126.7996838,S
(일산서구) 가좌연세태권도,031-923-2111,,경기도 고양시 일산서구 가좌동 1086 6단지 상가동 203호,,,F
(일산서구) 모닝글로리,031-922-8280,경기도 고양시 일산서구 가좌1로 38,경기도 고양시 일산서구 가좌동 1088번지 가좌마을벽산블루밍3단지아파트벽산 107호,37.68932424,126.7187195,S
(일산서구) GS가좌대우점,031-917-0644,경기도 고양시 일산서구 가좌3로 43,경기도 고양시 일산서구 가좌동 1089 대우2단지 상가 101,37.68704105,126.7171637,S
(일산서구) 일산선약국,031-923-0222,경기도 고양시 일산서구 가좌3로 43,경기도 고양시 일산서구 가좌동 1089번지,37.68704105,126.7171637,S
(일산서구) 진시황제,031-923-8088,경기도 고양시 일산서구 가좌3로 7-1,경기도 고양시 일산서구 가좌동 308-1번지,37.6852374,126.7201862,S
(일산서구) 부동산뱅크,031-923-0041,경기도 고양시 일산서구 가좌3로 47,경기도 고양시 일산서구 가좌동 404번지 선진상가 103호,37.68821344,126.7176353,S
(일산서구) 코사마트양우,031-925-1212,,경기도 고양시 일산서구 가좌동 양우1단지 상가,,,F
(일산서구) 엘리트안경,031-917-6929,경기도 고양시 일산서구 송포로 35,경기도 고양시 일산서구 대화동 1464-7 대륙상가 106호,37.66948988,126.7322718,S
(일산서구) 살롱드보떼,031-919-3052,경기도 고양시 일산서구 성저로 102-11,경기도 고양시 일산서구 대화동 2005-15,37.6847637,126.7581548,S
(일산서구) 챔문구점,031-912-1503,경기도 고양시 일산서구 웅비로12번길 5-7,경기도 고양시 일산서구 대화동 2020-2,37.68426499,126.756626,S
(일산서구) 삼성공인중개사사무소,031-917-4894,경기도 고양시 일산서구 일산로 638,경기도 고양시 일산서구 대화동 2032-4 성저빌딩 104호,37.68198948,126.7585153,S
(일산서구) 성저태권도,031-925-0078,경기도 고양시 일산서구 일산로 662,경기도 고양시 일산서구 대화동 2033 하나로프라자 203호,37.68292977,126.7557688,S
(일산서구) 코사마트,031-918-4458,경기도 고양시 일산서구 성저로 48,경기도 고양시 일산서구 대화동 2054,37.68398664,126.7527951,S
(일산서구) 삼성디지털프라자 대화점,031-919-1946,경기도 고양시 일산서구 중앙로 1582,경기도 고양시 일산서구 대화동 2206-2번지,37.67684674,126.7466072,S
(일산서구) 일산태극체육관,031-915-0704,,경기도 고양시 일산서구 대화동 2212번지 성저동익아파트 성저마을동익1단지아파트 성저동익상가 3층,37.67904469,126.7506012,S
(일산서구) 파리바게트,031-918-1086,경기도 고양시 일산서구 중앙로 1567,경기도 고양시 일산서구 대화동 2222,37.67565927,126.7474388,S
(일산서구) 한내문구,031-924-8844,경기도 고양시 일산서구 대화로 124,경기도 고양시 일산서구 대화동 863-16 명성프라자 113,37.66988206,126.7343559,S
(일산서구) GS25시 덕이하이파크점,031-911-3693,경기도 고양시 일산서구 하이파크3로 111,경기도 고양시 일산서구 덕이동 1529번지 하이파크시티일산파밀리에2단지 GS25덕이하이파크점,37.70123672,126.7512291,S
(일산서구) 덕이시티공인중개사,031-915-0114,경기도 고양시 일산서구 하이파크3로 61,경기도 고양시 일산서구 덕이동 1535번지 하이파크시티4단지아파트 103호,37.69780217,126.7503449,S
(일산서구) 덕이시티공인중개사,031-915-0114,경기도 고양시 일산서구 하이파크3로 10,경기도 고양시 일산서구 덕이동 393번지 신동아파밀리에 상가 103호,37.69259441,126.7544896,S
(일산서구) 자전거 장남감나라,031-921-3323,경기도 고양시 일산서구 덕이로 92,경기도 고양시 일산서구 덕이동 520-5,37.69140386,126.7496523,S
(일산서구) 농심가수퍼,031-913-9910,경기도 고양시 일산서구 후곡로 51,경기도 고양시 일산서구 일산동 1046 후곡2단지 상가,37.68226283,126.7644094,S
(일산서구) 본헤어미용실,031-816-8585,경기도 고양시 일산서구 일산로 614,경기도 고양시 일산서구 일산동 1050 후곡6단지 상가,37.68162542,126.7611012,S
(일산서구) 동부수퍼,031-915-7811,경기도 고양시 일산서구 일산로 614,경기도 고양시 일산서구 일산동 1050 후곡6단지 상가,37.68162542,126.7611012,S
(일산서구) 경희대한국태권도장,031-917-5533,경기도 고양시 일산서구 일산로 589,경기도 고양시 일산서구 일산동 1054-1,37.67954726,126.7626043,S
(일산서구) 관리사무실,031-911-4463,경기도 고양시 일산서구 후곡로 12,경기도 고양시 일산서구 일산동 1058 후곡9단지 상가,37.67765884,126.7643788,S
(일산서구) 으뜸부동산,031-914-5555,경기도 고양시 일산서구 후곡로 12,경기도 고양시 일산서구 일산동 1058 후곡9단지상가,37.67765884,126.7643788,S
(일산서구) 후곡문고,031-925-4300,경기도 고양시 일산서구 후곡로 22,경기도 고양시 일산서구 일산동 1059 지하1층,37.67904503,126.7637395,S
(일산서구) 올가뷰티,031-915-1809,경기도 고양시 일산서구 강선로 140,경기도 고양시 일산서구 일산동 1087 후곡17단지 상가,37.67518399,126.7702924,S
(일산서구) 유명식베이커리,031-922-5422,경기도 고양시 일산서구 강선로 168,경기도 고양시 일산서구 일산동 1101 후곡14단지 상가,37.67709672,126.771658,S
(일산서구) 서교경희대스포츠,031-976-0688,경기도 고양시 일산서구 고양대로 726,경기도 고양시 일산서구 일산동 1673-1 5층,37.68273728,126.7765719,S
(일산서구) 태화태권도,031-923-0303,경기도 고양시 일산서구 일청로65번길 15,경기도 고양시 일산서구 일산동 1936 2층,37.68946048,126.7729575,S
(일산서구) 굳프렌드편의점 로또토토,031-977-3905,경기도 고양시 일산서구 일청로 40-1,경기도 고양시 일산서구 일산동 586-16,37.68737785,126.7722383,S
(일산서구) 코사마트일산점,031-976-5732,경기도 고양시 일산서구 탄중로471번길 15,경기도 고양시 일산서구 일산동 587-63 미주상가 103,37.68740779,126.7737347,S
(일산서구) 한국태권도아카데미,031-911-8823,경기도 고양시 일산서구 산현로92번길 60,경기도 고양시 일산서구 일산동 이화프라자 307호,37.68934807,126.7707697,S
(일산서구) 신일산삼천리대리점,031-912-2531,,경기도 고양시 일산서구 주엽동 101 강선14단지,37.66790401,126.7612364,S
(일산서구) 문촌자전거,031-916-1399,,경기도 고양시 일산서구 주엽동 23,37.67218298,126.7609392,S
(일산서구) 삼천리자전거 문촌점,031-916-1399,경기도 고양시 일산서구 주엽로 156,경기도 고양시 일산서구 주엽동 23번지 문촌9단지 상가 102호,37.67218298,126.7609392,S
(일산서구) 대우벽산공인중개사,031-913-3300,경기도 고양시 일산서구 대산로 102,경기도 고양시 일산서구 주엽동 36 강선1단지 상가,37.67441029,126.7663275,S
(일산서구) 동부건영부동산,031-912-3322,경기도 고양시 일산서구 강선로 96,경기도 고양시 일산서구 주엽동 49 강선5단지 상가,37.67149381,126.7676516,S
(일산서구) 낙원떡방,031-912-1775,,경기도 고양시 일산서구 주엽동 63번지 강선마을LG롯데8단지아파트 강선8단지 상가,37.66974366,126.7665123,S
(일산서구) 제일공인중개사사무소,031-914-8005,,경기도 고양시 일산서구 주엽동 강선2단지 상가 제일부동산,,,F
(일산서구) 피아노교습소,031-918-9990,,경기도 고양시 일산서구 주엽동 강선9단지상가,,,F
(일산서구) 우리슈퍼,031-912-6759,,경기도 고양시 일산서구 주엽동 분산상가,,,F
(일산서구) CUNY태권도장,031-914-0713,경기도 고양시 일산서구 일현로 122,경기도 고양시 일산서구 탄현동 1476번지 탄현동8단지 상가 302호,37.6985122,126.7669086,S
(일산서구) 가위손미용실,031-911-3487,경기도 고양시 일산서구 현중로 62,경기도 고양시 일산서구 탄현동 1479 탄현6단지상가,37.69651504,126.7684003,S
(일산서구) 한국야쿠르트 중산점,031-917-4320,경기도 고양시 일산서구 현중로26번길 37-14,경기도 고양시 일산서구 탄현동 1499-4,37.69395967,126.7700977,S
(일산서구) 한울태권도,031-922-2208,,경기도 고양시 일산서구 탄현동 198 일신삼익상가,,,F
(일산서구) 한국체대꿈나무태권도,031-917-4288,,경기도 고양시 일산서구 탄현동 부영아파트 3단지상가,,,F
GS25 과천동지점,,,경기도 과천시 과천동,,,F
GS25 과천양지점,,경기도 과천시 양지마을1로 47,경기도 과천시 과천동 458-7,37.44977092,126.9984406,S
진로24시마트,,경기도 과천시 문원청계4길 4,경기도 과천시 문원동 115-153번지,37.42424543,127.0091633,S
세븐일레븐 과천중앙공원점,02-504-6371,경기도 과천시 별양상가1로 35,경기도 과천시 별양동 1-4번지 106 107호,37.42847093,126.9935046,S
과천우체국,02-502-2005,경기도 과천시 별양로 54,경기도 과천시 별양동 10번지,37.42372265,126.9935617,S
온누리건강나라약국,02-3418-6464,경기도 과천시 별양로 66-10,경기도 과천시 별양동 14번지 새서울프라자 1층,37.42421824,126.9941717,S
굴다리솜틀집,02-502-5425,경기도 과천시 향촌길 43,경기도 과천시 별양동 34-1,37.4255249,126.9975269,S
동신공인중개사무소,02-503-2488,,경기도 과천시 별양동 6번지 주공아파트,37.42904773,126.9956964,S
쌍용공인중개사무소,02-502-4839,경기도 과천시 별양로 85,경기도 과천시 별양동 7번지 삼호상가,37.42647074,126.9939455,S
한국야쿠르트,02-502-0004,,경기도 과천시 별양동 8호,37.42472267,126.992477,S
과천조은어린이집,,경기도 과천시 부림1길 42-9,경기도 과천시 부림동 13-11,37.43879659,126.995718,S
상록화원,02-507-1400,,경기도 과천시 부림동 41 남서울 상가 1층,37.43546304,126.9991646,S
GS25과천삼성점,02-502-8768,경기도 과천시 별양로 12,경기도 과천시 원문동 4번지 래미안슈르 1005호,37.42057803,126.9922516,S
주암동CU편의점,,,경기도 과천시 주암동,,,F
CU뉴양재주암점,02-529-9914,경기도 과천시 장군마을길 2,경기도 과천시 주암동 62-22번지,37.4637413,127.0344409,S
동성슈퍼,02-577-5081,경기도 과천시 장군마을1길 25,경기도 과천시 주암동 63 1층,37.46327305,127.033446,S
주암마트,02-529-5999,경기도 과천시 장군마을길 39,경기도 과천시 주암동 70-11 1층,37.46235413,127.0330274,S
관악식당,02-507-4846,경기도 과천시 희망4길 35,경기도 과천시 중앙동 13-7번지,37.43319192,126.990555,S
청솔공인중개사 사무소,02-504-8989,경기도 과천시 관문로 166,경기도 과천시 중앙동 67번지 삼성 종합상가 112호,37.4341023,126.9946903,S
10단지 관리사무소,02-502-0001,,경기도 과천시 중앙동 67번지 주공아파트,37.4341023,126.9946903,S
11단지관리사무소,02-507-0011,,경기도 과천시 중앙동 71번지,37.43424629,126.9925548,S
파리바게트,02-507-5413,,경기도 과천시 중앙동 71번지 래미안에코팰리스,37.43424629,126.9925548,S
광명시 광명종로약국,02-2682-8477,경기도 광명시 광복로 37,경기도 광명시 광명1동 9-28,37.48826009,126.8631497,S
광명시 시립광이 어린이집,02-2619-9452,경기도 광명시 광이로65번길 3,경기도 광명시 광명2동 62-19,37.48403834,126.8589064,S
광명시 현대문구,,경기도 광명시 오리로949번길 11,경기도 광명시 광명4동 158-422,37.47737773,126.8570651,S
광명시 코리아마트(나들가게),02-2613-8786,경기도 광명시 오리로995번길 5,경기도 광명시 광명4동 158-845,37.47929122,126.852573,S
광명시 롯데문구,02-2688-1736,경기도 광명시 오리로995번길 10,경기도 광명시 광명4동 158-891,37.47901138,126.8521552,S
광명시 우정e마트,02-2689-1254,경기도 광명시 너부대로 40,경기도 광명시 광명5동 211-1,37.47771072,126.8496481,S
광명시 세븐일레븐(광명교육청점),,경기도 광명시 광명로 773,경기도 광명시 광명6동 754,37.46915824,126.8480942,S
광명시 문방사우,,경기도 광명시 도덕로28번안길 11,경기도 광명시 광명7동 726-4,37.46715459,126.8524051,S
광명시 새마을금고(중앙지점),02-2619-3311,경기도 광명시 광명로928번길 15,경기도 광명시 광명동 109-9,37.48126119,126.8572045,S
광명시 미니스톱,02-2687-7419,경기도 광명시 광명로928번길 27,경기도 광명시 광명동 113-9,37.48084821,126.8584037,S
광명시 에이스수퍼(나들가게),02-2686-2287,경기도 광명시 오리로942번길 10,경기도 광명시 광명동 126-26,37.47892977,126.8589614,S
광명시 룸비니 어린이집,02-2618-0303,경기도 광명시 오리로942번길 21,경기도 광명시 광명동 127-16,37.4800111,126.8590724,S
광명시 한국야쿠르트(철산점),02-2683-3260,경기도 광명시 오리로984번길 19,경기도 광명시 광명동 143-4,37.48126707,126.8546832,S
광명시 행운할인마트,,경기도 광명시 오리로949번길 24-1,경기도 광명시 광명동 158-692,37.47634967,126.8563209,S
광명시 수정문구,02-2689-7064,경기도 광명시 광일로 51,경기도 광명시 광명동 16-27,37.48540289,126.8622618,S
광명시 대성마트(나들가게),02-2682-8898,경기도 광명시 광명로887번길 21,경기도 광명시 광명동 189-3,37.47901046,126.8514317,S
광명시 드림모바일,,경기도 광명시 너부대로 42-6,경기도 광명시 광명동 208-20,37.47765706,126.8499534,S
광명시 학교앞문구점,02-2615-2332,경기도 광명시 너부대로35번길 15-14,경기도 광명시 광명동 226-2,37.47762641,126.8471836,S
광명119안전센터,02-2610-3511,경기도 광명시 사성로 12,경기도 광명시 광명동 44-1,37.4853443,126.8585081,S
광명시 광명문구,02-2616-3598,경기도 광명시 오리로963번길 37,경기도 광명시 광명동 49-76번지,37.47554567,126.8546267,S
GS편의점(광문초교점),,경기도 광명시 도덕로28번안길 7,경기도 광명시 광명동 736-5,37.46715398,126.8519304,S
광명시 혜민약국,,경기도 광명시 도덕로 36,경기도 광명시 광명동 738-4,37.4681809,126.8517587,S
광명시 GS25편의점(광문점),02-2618-8095,경기도 광명시 도덕로 20,경기도 광명시 광명동 743-1,37.46773735,126.8501545,S
광명시 광남119안전센터,02-2610-3531,경기도 광명시 목감로 34,경기도 광명시 광명동 759-7번지,37.4714074,126.8455687,S
광명2동우체국,02-2619-0040,경기도 광명시 광명로 944,경기도 광명시 광명동 92-7번지,37.48284585,126.8563195,S
광명시 강릉슈퍼,02-897-1006,경기도 광명시 기아로 11,경기도 광명시 소하2동 897-3,37.43651748,126.8809858,S
광명시 에이스문구,02-898-1242,경기도 광명시 오리로 396,경기도 광명시 소하2동 903-5,37.43757963,126.8799897,S
광명시 삼일떡방아간,02-897-5777,,경기도 광명시 소하동,,,F
GS25(소하휴먼센터점),02-899-5968,경기도 광명시 소하로 55,경기도 광명시 소하동 1292,37.45054988,126.8847376,S
광명시 팬시북,02-899-1194,경기도 광명시 소하일로 32,경기도 광명시 소하동 1323,37.44776929,126.8882905,S
광명소방서,02-2610-3120,경기도 광명시 금하로 472,경기도 광명시 소하동 1336번지,37.44845991,126.8850913,S
광명시 끼니와새참,02-892-0678,경기도 광명시 성채안로 26,경기도 광명시 소하동 1373 상가,37.43459573,126.8873502,S
광명시 소하동우체국,02-897-3026,경기도 광명시 오리로 332,경기도 광명시 소하동 1383번지,37.43202013,126.8796824,S
광명시 안서문구서점,02-898-8891,경기도 광명시 기아로13번길 15,경기도 광명시 소하동 883-19,37.43774273,126.8808708,S
광명시 진성체육관,02-897-3920,경기도 광명시 영당로22번길 23,경기도 광명시 소하동 896-9번지,37.43693625,126.8765106,S
무궁화 문구센터,02-898-0308,경기도 광명시 오리로 399,경기도 광명시 소하동 909-27번지,37.43802022,126.8791189,S
광명시 농가슈퍼,02-2619-9756,,경기도 광명시 철산2동 235번지,37.48237378,126.8684859,S
광명시 또래분식,02-2684-9146,경기도 광명시 시청로138번안길 2-10,경기도 광명시 철산2동 86,37.486906,126.8686813,S
광명시 삼천리자전거,02-2683-3441,경기도 광명시 철산로 62,경기도 광명시 철산3동 449-2,37.477045,126.8730628,S
광명시 영아트 문구점,02-2616-7060,경기도 광명시 도덕공원로 52,경기도 광명시 철산3동 491-3,37.47363022,126.8650988,S
광명시 용인대체육관,02-8954-1403,경기도 광명시 가마산로 17,경기도 광명시 철산동 105-2,37.48457205,126.8683462,S
광명시 예솔유치원,02-2615-4238,경기도 광명시 가마산로 17,경기도 광명시 철산동 105-2번지 10단지교육센터 1층,37.48457205,126.8683462,S
광명시 동화나라 어린이집,02-2613-5680,경기도 광명시 연서일로 3,경기도 광명시 철산동 177-2,37.48254126,126.8652633,S
광명 철산3동 우체국,02-2686-0006,경기도 광명시 모세로 54,경기도 광명시 철산동 240-3,37.48098887,126.8708174,S
광명시 사랑약국,02-2682-8206,경기도 광명시 디지털로 29,경기도 광명시 철산동 448,37.4740692,126.8707956,S
광명시 하니어린이집,02-2617-0247,경기도 광명시 안양천로 309,경기도 광명시 철산동 449-3,37.47556928,126.8748176,S
광명시 성애문구점,02-2683-5460,,경기도 광명시 철산동 517-1,37.47351466,126.8664555,S
광명시 야쿠르트(광명점),02-2688-3466,경기도 광명시 도덕공원로 21-1,경기도 광명시 철산동 625-2,37.47090048,126.8653412,S
광명시 김밥천국,02-2618-7971,경기도 광명시 도덕공원로 35,경기도 광명시 철산동 630 브라운상가2차 105호,37.47179141,126.8644352,S
광명시 엄마와그림물감,02-2617-1826,경기도 광명시 사성로46번길 21,경기도 광명시 철산동 78-7,37.48451172,126.8629532,S
광명시 형제철물,02-2613-1300,경기도 광명시 시청로138번안길 2,경기도 광명시 철산동 85,37.48714914,126.8685678,S
광명시 아로마뜨 베이커리,02-897-4155,경기도 광명시 안재로2번길 43,경기도 광명시 하안1동 599-8,37.46107203,126.8746276,S
광명시 먹고가자 식당,02-897-0155,경기도 광명시 가림로 38,경기도 광명시 하안1동 702,37.46485427,126.8649001,S
광명시 5단지 카센터,,경기도 광명시 가림로 38,경기도 광명시 하안1동 702,37.46485427,126.8649001,S
광명시 색연필문구,02-898-3374,,경기도 광명시 하안1동 864,37.46854203,126.8672107,S
광명시 왕자문구,02-892-8919,경기도 광명시 안현로 35,경기도 광명시 하안2동 681,37.46637978,126.8754324,S
하안수퍼,,경기도 광명시 하안로 238,경기도 광명시 하안3동 200번지 103호,37.45907233,126.8837296,S
광명시 싱싱마트,,경기도 광명시 하안로 237,경기도 광명시 하안3동 260,37.45724195,126.8823988,S
광명시 럭키문구,02-803-4421,경기도 광명시 금당로 36,경기도 광명시 하안3동 260-2 1층,37.45882745,126.8821476,S
광명시 GS편의점(하안연서점),,경기도 광명시 안현로 52,경기도 광명시 하안4동 30-1,37.46548996,126.8774572,S
하안3동우체국,,경기도 광명시 금당로 45,경기도 광명시 하안동 110-6,37.45990953,126.8830162,S
광명시 아름슈퍼,02-807-0404,,경기도 광명시 하안동 13번지 하안9단지고층주공아파트,37.46754414,126.8773747,S
광명시 대흥마트(나들가게),02-808-3775,경기도 광명시 안현로 80,경기도 광명시 하안동 26,37.46701556,126.8802354,S
광명시 이삭샌드위치,02-894-3858,경기도 광명시 하안로 293-12,경기도 광명시 하안동 37-2,37.46149128,126.8791254,S
광명우체국,02-890-1165,경기도 광명시 범안로 1017,경기도 광명시 하안동 650-2,37.46107379,126.8762665,S
광명시 하안119안전센터,02-2610-3521,경기도 광명시 범안로 1025,경기도 광명시 하안동 650-4번지,37.46140802,126.8770684,S
광명시 한솔약국,02-898-2307,경기도 광명시 광덕산로 33,경기도 광명시 하안동 770 경흥빌딩 103,37.47084498,126.8720109,S
광명시 철산우체국,02-899-0006,경기도 광명시 광덕산로 35-1,경기도 광명시 하안동 771번지,37.47109745,126.87218,S
세븐일레븐경기광주월드점,,경기도 광주시 포돌이로11번길 9,경기도 광주시 경안동 128-44번지,37.41392306,127.2500349,S
굿,,경기도 광주시 경안로 104,경기도 광주시 경안동 185-1번지,37.40716616,127.2497303,S
CU(광주장신대점),,경기도 광주시 경안로88번길 43,경기도 광주시 경안동 215-2번지,37.40914156,127.2486751,S
동성MTA체육관,,경기도 광주시 경안로 150,경기도 광주시 경안동 219-43번지,37.40980842,127.2486208,S
푸른화원,,경기도 광주시 경안로 34,경기도 광주시 경안동 33-7번지,37.4096649,127.2568432,S
스마트학생복,031-765-6644,경기도 광주시 중앙로123번길 11,경기도 광주시 경안동 35-1,37.41006142,127.2568107,S
학우사,031-761-3893,경기도 광주시 중앙로123번길 24,경기도 광주시 경안동 36-13,37.40953227,127.2556681,S
부동산21공인중개사무소,031-768-1515,경기도 광주시 중앙로123번길 16-3,경기도 광주시 경안동 36-58번지,37.40997245,127.2562795,S
신용문구,031-764-8020,,경기도 광주시 경안동 36-69,37.40994477,127.2565844,S
백두태권도,,경기도 광주시 곤지암읍 곤지암로 70-6,경기도 광주시 곤지암읍 곤지암리 444-8번지,37.34990363,127.3388844,S
용인대청산K타이거즈,,경기도 광주시 곤지암읍 곤지암로 81,경기도 광주시 곤지암읍 곤지암리 447-3번지,37.34854351,127.3387429,S
한우리지역아동센터,031-769-8315,경기도 광주시 곤지암읍 곤지암로 87,경기도 광주시 곤지암읍 곤지암리 447-9번지,37.34812058,127.3385491,S
쌍용2차마트,031-764-1243,경기도 광주시 곤지암읍 곤지암로 88-4,경기도 광주시 곤지암읍 곤지암리 453-23번지,37.3480948,127.3381089,S
봉구스밥버거,031-762-7947,경기도 광주시 곤지암읍 곤지암로 74-1,경기도 광주시 곤지암읍 곤지암리 453-47번지,37.3490396,127.3385532,S
쌍용마트,031-762-9995,,경기도 광주시 곤지암읍 곤지암리 459-0,37.34503909,127.338558,S
GD마트,,경기도 광주시 곤지암읍 도척로 146,경기도 광주시 곤지암읍 곤지암리 478번지,37.33929434,127.337246,S
파리바게트,,경기도 광주시 곤지암읍 곤지암로 70-3,경기도 광주시 곤지암읍 곤지암리 581-0,37.34959745,127.3388266,S
만선약국,031-798-6354,경기도 광주시 곤지암읍 만선로 46,경기도 광주시 곤지암읍 만선리 355-1번지,37.36720858,127.4062991,S
만선할인마트,031-762-7081,경기도 광주시 곤지암읍 만선로 44,경기도 광주시 곤지암읍 만선리 360-4번지,37.36690339,127.4059588,S
케익하우스,031-762-8923,경기도 광주시 곤지암읍 만선로 47,경기도 광주시 곤지암읍 만선리 363-13번지,37.36739848,127.4060969,S
팜스타 약국,031-762-1875,,경기도 광주시 곤지암읍 삼리 106-7,,,F
미모어 헤어센스,031-762-0385,경기도 광주시 곤지암읍 평촌길 30-9,경기도 광주시 곤지암읍 삼리 132-6번지,37.35668023,127.3255844,S
한양대삼리태권도,,경기도 광주시 곤지암읍 평촌길 30-9,경기도 광주시 곤지암읍 삼리 132-6번지,37.35668023,127.3255844,S
성일태권도체육관,,경기도 광주시 곤지암읍 평촌길 30-21,경기도 광주시 곤지암읍 삼리 133-17번지,37.35697916,127.3249987,S
삼리문구,031-797-0704,경기도 광주시 곤지암읍 평촌길 30-21,경기도 광주시 곤지암읍 삼리 133-17번지,37.35697916,127.3249987,S
특공무술정도관,031-762-0773,경기도 광주시 곤지암읍 평촌길 30-19,경기도 광주시 곤지암읍 삼리 133-30번지,37.35692479,127.3251114,S
행복한 세상 우리들 약국,031-762-0996,경기도 광주시 곤지암읍 평촌길 38-14,경기도 광주시 곤지암읍 삼리 134-10번지,37.35648247,127.3254142,S
CU(곤지암수양점),031-763-7845,경기도 광주시 곤지암읍 경충대로 172,경기도 광주시 곤지암읍 수양리 287-4번지,37.33137405,127.3821866,S
호수매운탕,031-767-9028,경기도 광주시 남종면 산수로 1640,경기도 광주시 남종면 분원리 118-3,37.49571384,127.3015299,S
소원마트,031-761-5457,경기도 광주시 남한산성면 회안대로 1415,경기도 광주시 남한산성면 광지원리 164-1번지,37.4632492,127.2474505,S
산성마트,031-743-6552,경기도 광주시 남한산성면 남한산성로 774,경기도 광주시 남한산성면 산성리 581-7,37.47813006,127.1844822,S
번천순대국,031-761-3767,경기도 광주시 남한산성면 회안대로 1090-28,경기도 광주시 남한산성면 상번천리 549-2번지,37.44463319,127.2649168,S
상호상회,031-761-3715,경기도 광주시 남한산성면 해공로 46,경기도 광주시 남한산성면 상번천리 697-4,37.44644506,127.2645276,S
청도체육관,,경기도 광주시 도척면 노곡로 48-1,경기도 광주시 도척면 노곡리 230-17번지,37.30201952,127.3307195,S
GS25(광주목동점),,경기도 광주시 광남안로 204,경기도 광주시 목동 162번지,37.38330622,127.2079536,S
코사마트 밀목점,,경기도 광주시 중앙로 340,경기도 광주시 송정동 406-11번지,37.42944542,127.2593956,S
금강홈마트,,경기도 광주시 경안천로 143,경기도 광주시 송정동 574번지,37.4184728,127.2748118,S
통큰 딱다구리 문구,031-764-2337,,경기도 광주시 쌍령동 353,37.39811178,127.2779794,S
MTA태권도장(쌍령),031-767-1311,경기도 광주시 경충대로1422번길 10,경기도 광주시 쌍령동 353-34번지,37.39703477,127.2761686,S
한국야쿠르트(광주점),,경기도 광주시 역동로 109-1,경기도 광주시 역동 209번지,37.39914681,127.2541989,S
CU(능평파라테온점),031-763-2557,경기도 광주시 오포읍 오포로171번길 40-3,경기도 광주시 오포읍 능평리 105-1번지 파라테온105,37.34970723,127.1802336,S
GS25(광주매산점),031-765-3694,경기도 광주시 오포읍 매자리길 11,경기도 광주시 오포읍 매산리 226-28,37.35698412,127.2477261,S
CU편의점(광주매산점),031-766-3641,경기도 광주시 오포읍 회안대로71번길 4,경기도 광주시 오포읍 매산리 600-24,37.36139668,127.2445121,S
매산제일지역아동센터,,경기도 광주시 오포읍 회안대로 13,경기도 광주시 오포읍 매산리 746-8번지,37.35651036,127.245896,S
국가대표챔피언태권도,,경기도 광주시 오포읍 신현로 125,경기도 광주시 오포읍 신현리 367-9번지,37.35872756,127.1602984,S
세종공인중개사무소,031-726-4177,경기도 광주시 오포읍 신현로 120,경기도 광주시 오포읍 신현리 371-4,37.35875569,127.1594632,S
경기건재,031-718-2611,경기도 광주시 오포읍 신현로 108,경기도 광주시 오포읍 신현리 372-1,37.35947798,127.1583472,S
남서울너싱홈,031-726-9195,경기도 광주시 오포읍 새말길 324-15,경기도 광주시 오포읍 신현리 501,37.38056379,127.1762641,S
양벌문구,031-763-7884,경기도 광주시 오포읍 양벌로 195-8,경기도 광주시 오포읍 양벌리 314,37.37853751,127.2557221,S
예일지역아동센터,,경기도 광주시 오포읍 양벌로 195-8,경기도 광주시 오포읍 양벌리 314번지,37.37853751,127.2557221,S
삼천리자전거,031-764-7658,경기도 광주시 오포읍 양벌로 287-2,경기도 광주시 오포읍 양벌리 538-17,37.37317398,127.2483658,S
경희대매곡태권도,,경기도 광주시 오포읍 양촌길 151,경기도 광주시 오포읍 양벌리 552-3번지,37.37100627,127.2508988,S
백마문구,031-766-0902,경기도 광주시 오포읍 양벌로 303-4,경기도 광주시 오포읍 양벌리 609-1,37.3717249,127.2476159,S
추자할인마트,031-766-4947,경기도 광주시 오포읍 추자길 17,경기도 광주시 오포읍 추자리 383,37.35898244,127.2161499,S
MTA태권도 광주추자점,,경기도 광주시 오포읍 추자길 28-5,경기도 광주시 오포읍 추자리 505-2번지,37.36022713,127.215431,S
태성태권도,,경기도 광주시 고불로 52,경기도 광주시 중대동 16-53번지,37.3932809,127.2322037,S
삼성부동산,031-769-6363,경기도 광주시 초월읍 현산로 90,경기도 광주시 초월읍 도평리 212-3번지,37.39528644,127.2914981,S
통큰 딱다구리 문구,031-765-6975,경기도 광주시 초월읍 현산로 89-11,경기도 광주시 초월읍 도평리 219,37.39558693,127.2902006,S
GS25편의점 고은점(초월),,경기도 광주시 초월읍 산수로 517,경기도 광주시 초월읍 신월리 446-5번지,37.40678576,127.3084391,S
현진문구,031-766-4370,경기도 광주시 초월읍 도곡길22번길 14,경기도 광주시 초월읍 쌍동리 127-1,37.36981833,127.3010302,S
롯데 할인마트,031-765-5777,경기도 광주시 초월읍 경충대로 1081-36,경기도 광주시 초월읍 쌍동리 184번지,37.37114985,127.2982244,S
통큰 딱다구리 문구,031-765-6005,경기도 광주시 초월읍 경충대로 1049-18,경기도 광주시 초월읍 쌍동리 187-1,37.3710384,127.2995561,S
한국체대중앙태권도,,경기도 광주시 초월읍 경충대로 1049-18,경기도 광주시 초월읍 쌍동리 187-1번지,37.3710384,127.2995561,S
수정지역아동센터,,경기도 광주시 초월읍 경충대로 1128-20,경기도 광주시 초월읍 쌍동리 269-1번지,37.37764175,127.2963644,S
백마부동산,031-765-8924,경기도 광주시 초월읍 경충대로1127번길 10,경기도 광주시 초월읍 쌍동리 279-8,37.37770022,127.2945807,S
삼성디지털프라자,,경기도 광주시 이배재로 5,경기도 광주시 탄벌동 126-1번지,37.41797406,127.2473935,S
경희대초심태권도,,경기도 광주시 이배재로 41,경기도 광주시 탄벌동 185번지,37.42050018,127.2457863,S
한국야쿠르트(경안점),070-4450-0252,경기도 광주시 송정로 62,경기도 광주시 탄벌동 32-2번지,37.41738656,127.252588,S
Team1 태권GYM,,경기도 광주시 벌원길 64-3,경기도 광주시 탄벌동 48-11번지,37.41547708,127.2479728,S
밀목지역 아동센터,031-798-7587,경기도 광주시 벌원길 64-14,경기도 광주시 탄벌동 49-3번지,37.4149732,127.2476436,S
GS(광주탄벌점),,경기도 광주시 회안대로 645,경기도 광주시 탄벌동 535번지,37.4101432,127.2390887,S
너싱홈그린힐,031-768-5226,경기도 광주시 탄벌길 108,경기도 광주시 탄벌동 598-4,37.42183529,127.23603,S
마리앤모리,,,경기도 광주시 탄벌동 765번지 경남아너스빌1단지,37.41067321,127.2353403,S
전자랜드 광주점,031-798-6990,경기도 광주시 이배재로 24,경기도 광주시 탄벌동 9-13번지,37.41949808,127.2467546,S
세븐데이즈,031-798-5902,경기도 광주시 회안대로 350-7,경기도 광주시 태전동 143-2,37.3843631,127.2356994,S
성원3단지 정문경비실,,경기도 광주시 태봉로 77,경기도 광주시 태전동 193번지 3단지성원아파트,37.38667094,127.230422,S
성원2단지 정문경비실,,경기도 광주시 태봉로 61,경기도 광주시 태전동 222번지 2단지성원아파트,37.38792366,127.2302564,S
탑클레스태권도,,경기도 광주시 태봉로 58,경기도 광주시 태전동 228-1번지,37.38775683,127.227975,S
프란치스꼬의집,031-766-3062,경기도 광주시 고불로211번길 29,경기도 광주시 태전동 477-1,37.39456187,127.2119255,S
온누리 건강약국,031-765-8925,경기도 광주시 퇴촌면 광동로 55,경기도 광주시 퇴촌면 광동리 243-4,37.47052136,127.3088566,S
GS25시편의점(퇴촌광동로점),031-000-0000,경기도 광주시 퇴촌면 광동로 55,경기도 광주시 퇴촌면 광동리 243-4번지,37.47052136,127.3088566,S
아이너싱홈,031-766-0876,경기도 광주시 퇴촌면 산수로 1289,경기도 광주시 퇴촌면 광동리 279,37.46952797,127.3062526,S
퇴촌한마음지역아동센터,,경기도 광주시 퇴촌면 탑골길 5-16,경기도 광주시 퇴촌면 광동리 315-1번지,37.46719099,127.307577,S
CU(광주퇴촌점),031-768-0127,경기도 광주시 퇴촌면 천진암로 391,경기도 광주시 퇴촌면 도수리 354-1,37.47116097,127.3157775,S
한울너싱홈,031-797-9114,경기도 광주시 퇴촌면 천진암로 968-6,경기도 광주시 퇴촌면 우산리 47,37.43702522,127.3562676,S
용인대체육관,,,경기도 구리시 교문동 1-8번지 동방아파트,37.59608714,127.1374257,S
세븐일레븐(구리교문),031-555-3578,경기도 구리시 경춘로172번길 2,경기도 구리시 교문동 216-7번지,37.60017213,127.1342623,S
CU편의점,031-557-2441,경기도 구리시 경춘로162번길 21,경기도 구리시 교문동 217-1,37.59956067,127.1331741,S
우리마트,031-569-9086,경기도 구리시 안골로19번길 30,경기도 구리시 교문동 724-12,37.59850695,127.1327873,S
고려문구사,031-567-6384,경기도 구리시 안골로19번길 9,경기도 구리시 교문동 725-7,37.59764192,127.1328764,S
E-푸른마트,031-564-6833,경기도 구리시 안골로19번길 47,경기도 구리시 교문동 727,37.59830974,127.1318697,S
교문우체국,031-555-0004,경기도 구리시 안골로 32,경기도 구리시 교문동 736-1,37.5968923,127.1345057,S
CU,031-553-4263,경기도 구리시 안골로20번길 78,경기도 구리시 교문동 758-8,37.59391953,127.1340928,S
도림문구,031-555-1088,경기도 구리시 아차산로432번길 4,경기도 구리시 교문동 760,37.59330967,127.1315441,S
송림마트,031-563-5787,경기도 구리시 이문안로5번길 24,경기도 구리시 교문동 761,37.59292196,127.1318152,S
백문슈퍼,031-565-2832,경기도 구리시 장자대로13번길 57,경기도 구리시 교문동 800-9번지,37.59028124,127.1325918,S
세븐일레븐,,경기도 구리시 장자대로1번길 38-30,경기도 구리시 교문동 802번지,37.59011979,127.1319235,S
현대문구,031-557-8145,경기도 구리시 장자대로13번길 11,경기도 구리시 교문동 806-7,37.58825488,127.1318184,S
한국체육관,,,경기도 구리시 교문동 809-1번지 하나아파트,37.59100609,127.1370089,S
엘리트공인중개사,031-558-3345,,경기도 구리시 교문동 820번지 금호1차아파트,37.58653234,127.1333439,S
태권도아카데미명화,,,경기도 구리시 교문동 826번지 신명아파트,37.58561837,127.1368973,S
알뜰슈퍼,031-527-1303,경기도 구리시 동구릉로389번길 4,경기도 구리시 사노동 209-20번지,37.63241847,127.1417281,S
중앙부동산,031-528-0900,경기도 구리시 동구릉로 397,경기도 구리시 사노동 252-7,37.63291439,127.1414005,S
상일가구,031-529-8923,경기도 구리시 동구릉로460번길 9,경기도 구리시 사노동 386-3,37.63852914,127.1399494,S
유정마트,,경기도 구리시 안골로57번길 14-3,경기도 구리시 수택동 377-43번지,37.59797922,127.1373951,S
관인라이온스체육관,,경기도 구리시 안골로63번길 28-15,경기도 구리시 수택동 381-19번지,37.59877908,127.1391517,S
은혜슈퍼,031-562-3615,경기도 구리시 안골로86번길 8,경기도 구리시 수택동 431-29번지,37.59689429,127.1406543,S
골드약국,031-552-1281,경기도 구리시 안골로64번길 42,경기도 구리시 수택동 434-1번지,37.59661541,127.1402914,S
경희삼성태권도,,경기도 구리시 이문안로99번길 13,경기도 구리시 수택동 449-31번지,37.59247761,127.1422653,S
고향마트,031-564-6966,경기도 구리시 검배로72번길 56,경기도 구리시 수택동 456-85번지,37.59408805,127.1442045,S
고려슈퍼마켓,031-563-1145,경기도 구리시 원수택로64번길 28,경기도 구리시 수택동 472번지,37.59617028,127.1433932,S
라벤더헤어,,경기도 구리시 원수택로64번길 53,경기도 구리시 수택동 480-22번지,37.59556503,127.1447282,S
태양마트,031-562-4941,경기도 구리시 검배로83번길 23,경기도 구리시 수택동 493-18번지,37.59636312,127.1478436,S
진성슈퍼,031-566-7153,경기도 구리시 검배로59번길 10-13,경기도 구리시 수택동 503-12,37.59686957,127.146282,S
아띠어린이집,031-566-7017,경기도 구리시 검배로47번길 11,경기도 구리시 수택동 512-12,37.59792579,127.1445628,S
주택마트,031-569-0402,경기도 구리시 검배로15번길 21,경기도 구리시 수택동 522번지,37.59927878,127.1432858,S
GS25시(수택제일),031-565-8022,경기도 구리시 검배로29번길 53,경기도 구리시 수택동 527-42,37.60070116,127.1442623,S
하늘태권스쿨,,경기도 구리시 경춘로276번길 22,경기도 구리시 수택동 535-34번지,37.60183436,127.1459518,S
김금숙헤어샵,031-553-7166,경기도 구리시 경춘로276번길 38,경기도 구리시 수택동 539-11,37.60117607,127.1464261,S
현대문방구,031-563-9230,경기도 구리시 경춘로276번길 52,경기도 구리시 수택동 541-23,37.60058992,127.146844,S
제일문구,031-563-9458,경기도 구리시 경춘로276번길 52,경기도 구리시 수택동 541-23번지,37.60058992,127.146844,S
구리슈퍼,031-553-8207,경기도 구리시 경춘로276번길 56,경기도 구리시 수택동 541-24,37.60050874,127.1469231,S
용인대서울태권도장,,경기도 구리시 경춘로276번길 35,경기도 구리시 수택동 554번지,37.60136504,127.146619,S
성경하이마트,031-557-9586,,경기도 구리시 수택동 612-2번지 성경아파트,37.59303573,127.142674,S
구리수택동우체국,031-554-0004,경기도 구리시 체육관로74번길 51,경기도 구리시 수택동 851-2,37.59125385,127.140927,S
오정마트,031-553-5705,경기도 구리시 이문안로 106,경기도 구리시 수택동 853번지,37.59095341,127.1435646,S
GS25시,031-568-5957,경기도 구리시 응달말로19번길 27,경기도 구리시 인창동 610-93,37.60214598,127.1336203,S
구리용인대화랑태권도,,,경기도 구리시 인창동 640-1번지 아름마을LG아파트,37.60703101,127.1320434,S
GS25시,031-553-2573,경기도 구리시 인창1로 45-6,경기도 구리시 인창동 641-7,37.60783487,127.1302101,S
GS25시(구리동원),031-567-2326,경기도 구리시 동구릉로85번길 15,경기도 구리시 인창동 651-30,37.60825515,127.1331214,S
동원부동산,,경기도 구리시 동구릉로85번길 11,경기도 구리시 인창동 651-31번지,37.60825597,127.1323739,S
고려대영타이거,,경기도 구리시 건원대로76번길 41,경기도 구리시 인창동 664-6번지,37.61020169,127.1406788,S
두레부동산,031-557-4780,경기도 구리시 건원대로76번길 43,경기도 구리시 인창동 664-7,37.60980517,127.1407574,S
뚜레쥬르,031-557-3458,,경기도 구리시 인창동 665-1,37.606616,127.1405137,S
정훈태권도장,,,경기도 구리시 인창동 665-1번지 삼보아파트,37.606616,127.1405137,S
인창태권도,,경기도 구리시 건원대로34번길 35,경기도 구리시 인창동 667-1번지,37.60547825,127.1426519,S
구리우체국,031-560-0010,경기도 구리시 건원대로34번길 34,경기도 구리시 인창동 674-1,37.60414495,127.1425362,S
이삭토스트,031-553-6320,경기도 구리시 검배로136번길 62,경기도 구리시 토평동 1002-10,37.59211607,127.1506208,S
엿장수문방구,031-564-7545,경기도 구리시 벌말로129번길 17,경기도 구리시 토평동 611-32,37.58775949,127.1472609,S
토평경희대태권도장,,경기도 구리시 벌말로129번길 17,경기도 구리시 토평동 611-32번지,37.58775949,127.1472609,S
한일할인마트,031-577-1211,,경기도 구리시 토평동 961번지 한일아파트,37.58828803,127.1422915,S
우리들문방구,031-552-2691,경기도 구리시 벌말로129번길 92,경기도 구리시 토평동 964,37.59059163,127.1447301,S
옹인대창룡체육관,,경기도 구리시 벌말로129번길 92,경기도 구리시 토평동 964번지,37.59059163,127.1447301,S
GS25시,031-562-9117,경기도 구리시 벌말로129번길 4,경기도 구리시 토평동 988-2,37.58825387,127.1482015,S
국가대표키즈태권도장,,경기도 구리시 벌말로 200,경기도 구리시 토평동 998번지,37.59400766,127.1509869,S
수택체육관,,경기도 구리시 검배로 128,경기도 구리시 토평동 999-3번지,37.59380826,127.1519263,S
궁안골식당,031-398-4667,경기도 군포시 수리산로 191,경기도 군포시 궁내동 1149-2,37.36500286,126.9209274,S
경호체유관,031-458-3848,경기도 군포시 번영로587번길 16,경기도 군포시 금정동 722번지 경호체육관,37.36291546,126.9405373,S
군포한양체육관,031-452-9566,,경기도 군포시 금정동 744-1번지 신환아파트 유아원 상가 1층,37.36136602,126.9411142,S
경희대석사선무태권도장,,경기도 군포시 당산로125번길 29-8,경기도 군포시 금정동 757-38번지 경희대석사선무태권도장,37.36142145,126.9437894,S
알파문구,031-396-2398,경기도 군포시 번영로550번길 23,경기도 군포시 금정동 850-5,37.35861677,126.9389267,S
cu(군포재궁점),031-399-5506,경기도 군포시 오금로 142,경기도 군포시 금정동 866-3,37.35905949,126.941229,S
즉석떡볶이,031-391-3200,경기도 군포시 오금로 18,경기도 군포시 금정동 871-12,37.35194473,126.931043,S
흥진문구,031-391-1600,,경기도 군포시 금정동 871-2 다산상가,37.35447141,126.9376774,S
소월부동산,031-398-3131,경기도 군포시 오금로 36,경기도 군포시 금정동 871-7 상가,37.35191889,126.9330408,S
경희대석사태권도장,031-459-4590,경기도 군포시 오금로 71,경기도 군포시 금정동 872-6번지 경희대석사태권도장,37.35517282,126.9352049,S
아이스타태권도장,031-399-0399,경기도 군포시 광정로 25-16,경기도 군포시 금정동 875-2번지 퇴계 상가 201호,37.35575642,126.9317054,S
유약국,031-392-4128,,경기도 군포시 금정동 퇴계상가,,,F
한마음슈퍼,031-393-2211,,경기도 군포시 당동,,,F
메디팜 동양약국,031-395-0273,,경기도 군포시 당동,,,F
행운하이마켓,031-456-0790,,경기도 군포시 당동,,,F
군포온누리약국,031-459-7503,경기도 군포시 당동로 6,경기도 군포시 당동 771-14 1층,37.35086156,126.943809,S
우리세탁소,031-393-3321,경기도 군포시 당동로21번길 50,경기도 군포시 당동 791-10,37.34895012,126.9412824,S
박이연태권도장,031-397-3998,경기도 군포시 군포로471번길 12,경기도 군포시 당동 794-42번지 3층 박이연태권도장,37.34869875,126.9430658,S
쎄븐일레븐(군포주공점),031-393-6262,경기도 군포시 용호2로 61,경기도 군포시 당동 872-5번지 무광프라자,37.34550055,126.9438696,S
헤어통신,031-397-7058,,경기도 군포시 당동 873 쌍용(아) 상가,,,F
아이탑태권도장,031-393-3331,경기도 군포시 용호2로 47,경기도 군포시 당동 873번지 쌍용아파트 단지상가 2층,37.344842,126.9422902,S
코사주공할인마트,031-391-8495,경기도 군포시 용호2로54번길 11,경기도 군포시 당동 886,37.34497871,126.9453936,S
메디컬약국,031-391-9523,경기도 군포시 군포로 470,경기도 군포시 당동 904-4 경림빌딩 1층,37.34808656,126.9440595,S
군포한국태권도장,031-456-9389,경기도 군포시 금당로17번길 10,경기도 군포시 당동 951-3번지 J.M프라자 401호,37.35013866,126.9397578,S
창의마을유치원,031-395-0020,경기도 군포시 용호1로2번안길 2,경기도 군포시 당동 973-13번지 창의마을유치원,37.34364191,126.9389845,S
e 편한할인마트,031-399-5433,,경기도 군포시 당동 979 용호대림상가,,,F
jj헤어닷컴,031-393-1214,,경기도 군포시 당동 979-1 용호대림(아) 상가,37.34342437,126.9366261,S
당동효동체육관,031-398-8664,경기도 군포시 용호1로21번길 15,경기도 군포시 당동 979-1번지 용호마을e-편한세상 당동효동체육관,37.34342437,126.9366261,S
동진인테리어,031-394-1840,,경기도 군포시 당동 용호대림 2차 상가,,,F
경희대효동태권도장,031-6429-9085,경기도 군포시 고산로211번길 31,경기도 군포시 당정동 1004-2번지 경희대효동태권도장,37.34386398,126.9508678,S
cu(한세대점),,경기도 군포시 고산로151번길 18,경기도 군포시 당정동 971-6,37.34709156,126.9554815,S
모닝글로리,031-451-0360,경기도 군포시 고산로151번길 26-4,경기도 군포시 당정동 971-9 태영프라자,37.34658711,126.9557865,S
군포용인대백호태권도장,031-456-4570,경기도 군포시 고산로151번길 26-4,경기도 군포시 당정동 971-9번지 군포용인대백호태권도장,37.34658711,126.9557865,S
엘지온누리약국,031-477-9749,경기도 군포시 고산로151번길 25,경기도 군포시 당정동 980-5번지 럭키빌딩 101호,37.34666838,126.9562266,S
해광경희대태권도장,031-437-9288,경기도 군포시 대야2로143번길 26,경기도 군포시 대야미동 639-1번지,37.33189616,126.9162017,S
세븐일레븐(대야미점),031-438-9381,경기도 군포시 대야2로 159,경기도 군포시 대야미동 645-17번지 645,37.32875187,126.9165664,S
대야행복한어린이집,031-501-8116,,경기도 군포시 대야미동 652,,,F
gs25시,031-437-4700,경기도 군포시 대야1로24번길 2,경기도 군포시 대야미동 654-2번지,37.32764414,126.9172897,S
중앙석사태권도장,031-437-8581,경기도 군포시 대야1로15번길 5,경기도 군포시 대야미동 660-3번지 영광빌딩 3층,37.32656316,126.9176182,S
대림(아)경비실,031-505-5626,,경기도 군포시 대야미동 667-3,37.32520159,126.9162094,S
용인대대야효태권스쿨,031-502-7999,경기도 군포시 군포로 109-130,경기도 군포시 대야미동 667-3번지 상가,37.32520159,126.9162094,S
한양대스타태권도장,031-407-5863,경기도 군포시 송부로 42,경기도 군포시 도마교동 488-2번지 6층,37.31595013,126.9190065,S
e-좋은둥지,031-437-3939,경기도 군포시 대야2로 154-35,경기도 군포시 둔대동 233,37.32809244,126.914288,S
정성의집,031-502-2790,경기도 군포시 대야2로 154-35,경기도 군포시 둔대동 233,37.32809244,126.914288,S
CU(부곡중앙점),031-461-1774,경기도 군포시 송부로221번길 6,경기도 군포시 부곡동 1092-1,37.32311483,126.9355947,S
이유미술교습소,,경기도 군포시 송부로273번안길 3-11,경기도 군포시 부곡동 1128-1번지 태화빌딩 103호,37.32289307,126.9420596,S
용인대석사중앙태권도장,,경기도 군포시 송부로273번안길 3-7,경기도 군포시 부곡동 1128-2번지 용인대석사중앙태권도장,37.3227849,126.9419581,S
별똥별블럭,,경기도 군포시 송부로273번안길 3,경기도 군포시 부곡동 1130-9번지 별똥별블럭,37.32245156,126.9420374,S
파리바게뜨,031-461-8240,경기도 군포시 송부로291번안길 3-14,경기도 군포시 부곡동 1140-1,37.32211927,126.9441812,S
진이찬방,031-399-0555,,경기도 군포시 부곡동 1199번지 삼성마을2단지아파트 부곡로1199 삼성마을 제상가동 101호,37.33644817,126.9325925,S
하늘팬시문구,031-393-1238,경기도 군포시 삼성로20번길 3-7,경기도 군포시 부곡동 1210-2번지 102호,37.33747553,126.93293,S
놀이마이아트,,경기도 군포시 삼성로20번길 7,경기도 군포시 부곡동 1213-6번지 놀이마이아트,37.33780934,126.9336745,S
신기K타이거즈태권도장,031-392-1245,경기도 군포시 삼성로8번길 10,경기도 군포시 부곡동 1218-2번지 5층 신기K타이거즈태권도장,37.33691806,126.9349279,S
글로벌박사경희대태권도,031-396-3100,경기도 군포시 삼성로 6,경기도 군포시 부곡동 1219번지 글로벌박사경희대태권도장,37.33631412,126.9344771,S
see plus(안경점),031-391-4384,,경기도 군포시 산본동,,,F
궁내부동산,031-396-8989,,경기도 군포시 산본동,,,F
행복헤어,031-393-2280,,경기도 군포시 산본동,,,F
동성부동산,031-392-0012,,경기도 군포시 산본동,,,F
새하늘약국,031-346-1551,,경기도 군포시 산본동,,,F
미래중개사,031-395-6000,,경기도 군포시 산본동,,,F
예손꽃프라자,031-399-3379,,경기도 군포시 산본동,,,F
한라마트,031-393-0138,,경기도 군포시 산본동,,,F
산본종로약국,031-395-8011,,경기도 군포시 산본동,,,F
주공중앙슈퍼,031-392-6769,,경기도 군포시 산본동,,,F
하나로마트,,,경기도 군포시 산본동 101호,,,F
오뚜기문구,031-452-9953,경기도 군포시 금정로42번길 31,경기도 군포시 산본동 1035-6,37.36700564,126.9397324,S
청룡체육관,031-396-3242,경기도 군포시 금산로 55,경기도 군포시 산본동 1036-2번지 화남 상가 202호,37.36703207,126.9386147,S
한마음김밥,031-398-0028,,경기도 군포시 산본동 104호 우방목련상가,,,F
훈이슈퍼,031-391-1174,경기도 군포시 산본천로 119-9,경기도 군포시 산본동 1052 주공11단지상가,37.36508224,126.9322271,S
비호태권도장,031-391-0042,경기도 군포시 산본천로 119-13,경기도 군포시 산본동 1052-1번지 비호태권도장,37.36550644,126.9334572,S
매화공인중개사,031-392-0088,,경기도 군포시 산본동 1055 매화(아) 상가,,,F
백호태권도장,031-395-9888,경기도 군포시 고산로 679,경기도 군포시 산본동 1061-3번지 백호태권도장,37.3710029,126.9339263,S
21세기태권도장,031-3949-9077,경기도 군포시 고산로677번길 40,경기도 군포시 산본동 1066-2번지 21세기태권도장,37.37272178,126.9305039,S
행운공인중개사,031-398-8924,경기도 군포시 고산로677번길 36,경기도 군포시 산본동 1066-3번지 개나리아파트 상가,37.37286619,126.9308989,S
노벨문구,031-394-7676,경기도 군포시 곡란로90번길 1-9,경기도 군포시 산본동 1077-3,37.37291898,126.9288441,S
114곡란공인중개사,031-391-9700,경기도 군포시 곡란로104번길 1-1,경기도 군포시 산본동 1082-6,37.37222495,126.9284497,S
최강드림태권도장,031-398-1119,경기도 군포시 산본로432번길 7,경기도 군포시 산본동 1088-3번지 드림센터 1층,37.36844894,126.9272342,S
올림픽체육관,031-397-8344,경기도 군포시 산본로432번길 25,경기도 군포시 산본동 1088번지 한양목련아파트 올림픽체육관,37.37050368,126.9279208,S
힘찬체육관,031-393-0422,경기도 군포시 산본로386번길 5-11,경기도 군포시 산본동 1094번지 삼대빌딩 2층,37.36519799,126.929958,S
시립엘림노인전문요양원,031-390-3901,경기도 군포시 고산로 589,경기도 군포시 산본동 1100,37.36588878,126.9252613,S
해성슈퍼,031-394-4732,경기도 군포시 산본로431번길 20,경기도 군포시 산본동 1111번지,37.36724902,126.9248196,S
궁내체육관,031-392-8884,경기도 군포시 고산로 571,경기도 군포시 산본동 1119번지 한양백두 상가 210호,37.36452727,126.9237839,S
cu(중앙로점),031-398-4999,경기도 군포시 광정로 78,경기도 군포시 산본동 1123-4번지 유공프라자 105호,37.35991789,126.9297035,S
GS25(산본중앙점),031-392-4979,경기도 군포시 산본로323번길 16-14,경기도 군포시 산본동 1134번지 센타빌딩 104호,37.3595859,126.9319839,S
GS25(산본 우정점),031-397-0231,경기도 군포시 산본로323번길 20-25,경기도 군포시 산본동 1138번지,37.35958519,126.93081,S
럭키할인마트,031-393-0189,,경기도 군포시 산본동 1145-14,37.35752818,126.9265115,S
신흥태권도장,031-399-2949,경기도 군포시 산본천로 12,경기도 군포시 산본동 1145-14번지 을지아파트 상가 307호,37.35752818,126.9265115,S
머리사랑,031-395-5091,경기도 군포시 산본천로 34-5,경기도 군포시 산본동 1145-2,37.35930414,126.9280109,S
한살림산본매장,031-396-0318,경기도 군포시 광정로 59,경기도 군포시 산본동 1145-4 103-2호,37.35819725,126.9301792,S
경희대효동태권도장,031-395-1616,경기도 군포시 광정로 59,경기도 군포시 산본동 1145-4번지 경희대효동태권도장,37.35819725,126.9301792,S
경희대거인태권도장,031-394-9966,경기도 군포시 산본천로 31,경기도 군포시 산본동 1146-7번지 7단지 중앙교육센터 경희대거인태권도장,37.35975408,126.9271188,S
용인대효동태권도장,031-393-7879,경기도 군포시 고산로 529,경기도 군포시 산본동 1147번지 금강2단지 주상복합 용인대효동태권도장,37.3607782,126.9225123,S
경희대정우태권도장,031-394-8864,경기도 군포시 고산로539번길 7-36,경기도 군포시 산본동 1148-3번지 경희대효동태권도장,37.36064255,126.92179,S
종합문구,031-396-0394,경기도 군포시 수리산로 136,경기도 군포시 산본동 1148-8,37.36036153,126.9193409,S
산오름,031-397-8856,경기도 군포시 수리산로 191-1,경기도 군포시 산본동 1149,37.36516506,126.9209498,S
한양문구,031-395-6469,,경기도 군포시 산본동 1151-5,37.35694562,126.9178434,S
까페 헬로,031-396-4615,경기도 군포시 수리산로 42,경기도 군포시 산본동 1151-5번지,37.35694562,126.9178434,S
계룡부동산,031-393-6600,,경기도 군포시 산본동 1152-7,37.35592175,126.92254,S
우리부동산,031-399-6262,경기도 군포시 번영로 387,경기도 군포시 산본동 1155-3,37.35008464,126.9247358,S
민지네슈퍼,031-392-4881,,경기도 군포시 산본동 1155-7,37.3455064,126.9231267,S
궁내태권도,031-393-8884,,경기도 군포시 산본동 1155번지 가야마을주공5단지1차아파트 가야1차상가 201호,37.35141781,126.9242378,S
인화체육관,031-391-1156,경기도 군포시 번영로 378,경기도 군포시 산본동 1156-11,37.34897706,126.925764,S
싱싱슈퍼,031-395-1114,경기도 군포시 번영로 330,경기도 군포시 산본동 1156-25,37.34497618,126.9252038,S
부동산랜드,031-395-8866,경기도 군포시 번영로 330,경기도 군포시 산본동 1156-25 한라종합상가,37.34497618,126.9252038,S
CU(산본역),031-392-0932,,경기도 군포시 산본동 1층,,,F
해온익스트림태권도장,031-341-3030,경기도 군포시 금산로 64,경기도 군포시 산본동 225-9번지 3층,37.36788804,126.9386253,S
알뜰미도슈퍼,031-393-8305,,경기도 군포시 산본동 45-1,37.37572722,126.9393186,S
삼성미도부동산,031-395-7755,,경기도 군포시 산본동 45-1 삼성미도(아) 상가,,,F
희영소비자슈퍼,,,경기도 김포시 감정동,,,F
성우태권도장,,경기도 김포시 봉화로 175,경기도 김포시 감정동 448-2,37.62744082,126.7021331,S
주연메디컬약국,031-997-6030,경기도 김포시 중봉로 9,경기도 김포시 감정동 513-2,37.62318434,126.6971096,S
세븐일레븐,031-997-5484,경기도 김포시 중봉로 12,경기도 김포시 감정동 515-12 방주상가 102,37.62354616,126.6976631,S
삼환슈퍼,031-984-9422,,경기도 김포시 감정동 659,37.62729921,126.6996075,S
CU 김포신화점,031-991-6820,,경기도 김포시 감정동 674,37.62466216,126.7006944,S
MDT 태권스쿨,,,경기도 김포시 감정동 676 김포스포츠센터,37.62596649,126.6998848,S
경희대태비태권도체육관,,,경기도 김포시 감정동 신안1차 204호,,,F
고촌문구,031-997-3395,경기도 김포시 고촌읍 신곡로29번길 31,경기도 김포시 고촌읍 신곡리 1105,37.60524759,126.7732962,S
신곡문고,031-985-2680,,경기도 김포시 고촌읍 신곡리 1256,37.59727446,126.7689611,S
영재어린이집,031-986-6589,경기도 김포시 고촌읍 신곡로 75,경기도 김포시 고촌읍 신곡리 454-17,37.60657685,126.7711517,S
CU편의점,031-986-7906,,경기도 김포시 고촌읍 신곡리 532-84,,,F
길훈문구,031-985-1812,경기도 김포시 고촌읍 장차로 23,경기도 김포시 고촌읍 신곡리 539-8,37.60402579,126.7704915,S
세븐일레븐,031-997-3205,경기도 김포시 고촌읍 장곡로 54,경기도 김포시 고촌읍 풍곡리 485-19번지,37.60685669,126.7494976,S
한가람gs편의점,,경기도 김포시 김포한강5로 417,경기도 김포시 구래동 6873-8번지 우미린 상가 101호,37.64909745,126.625922,S
수남마트,031-982-4593,경기도 김포시 대곶면 수남로 22,경기도 김포시 대곶면 대능리 472-3,37.6291267,126.5893646,S
오렌지마트,031-998-9117,경기도 김포시 대곶면 대곶남로 383,경기도 김포시 대곶면 대능리 494-10,37.6274085,126.5901218,S
이병석 家,,경기도 김포시 대곶면 대곶로20번길 60,경기도 김포시 대곶면 대명리 366-30,37.64876697,126.5546162,S
수남 보건 진료소,031-987-4876,경기도 김포시 대곶면 수남로22번길 7,경기도 김포시 대곶면 대벽리 17-8,37.6293505,126.5889556,S
석정마트,031-989-2847,경기도 김포시 대곶면 대곶로 338,경기도 김포시 대곶면 석정리 384-1,37.67373411,126.5550101,S
훈기상회,031-989-4214,경기도 김포시 대곶면 대곶로 327,경기도 김포시 대곶면 석정리 388-4,37.67285075,126.5549021,S
한우정육점,,,경기도 김포시 대곶면 율생리 453-19,37.65096217,126.5831472,S
영아트,031-981-5836,경기도 김포시 대곶면 율생중앙로36번길 7-19,경기도 김포시 대곶면 율생리 460,37.65229726,126.5836156,S
대양할인마트,031-986-1828,,경기도 김포시 마산동,,,F
대우슈퍼,,,경기도 김포시 북변동,,,F
아트문구,031-984-2648,경기도 김포시 북변중로65번길 33,경기도 김포시 북변동 383-15,37.62557936,126.7107157,S
용인대 타이곤,,경기도 김포시 북변중로 43,경기도 김포시 북변동 404-10 월드프라자,37.62524738,126.7112721,S
만남수퍼,031-984-7108,경기도 김포시 북변중로25번길 25,경기도 김포시 북변동 421-6,37.62432708,126.7107433,S
동신슈퍼,031-983-2667,경기도 김포시 중구로 15,경기도 김포시 북변동 438-5,37.62288635,126.7110774,S
월드문구,031-982-5534,경기도 김포시 봉화로 180,경기도 김포시 북변동 761,37.62799001,126.7019723,S
GS25,031-985-8030,경기도 김포시 봉화로 167,경기도 김포시 북변동 775,37.62688436,126.7029736,S
경희대 석사 백호태권도장,,경기도 김포시 사우중로73번길 38,경기도 김포시 북변동 819 김포프라자,37.62246819,126.7206619,S
GS25(김포프라자점),031-982-1670,경기도 김포시 사우중로73번길 38,경기도 김포시 북변동 819 김포프라자,37.62246819,126.7206619,S
삼성디지털프라자,,,경기도 김포시 사우동,,,F
오거리마트,031-983-7174,,경기도 김포시 사우동,,,F
경신슈퍼,,,경기도 김포시 사우동,,,F
건영마트,031-988-4623,,경기도 김포시 사우동 1474,37.62440889,126.7259899,S
CU 김포등기소점,031-985-5570,경기도 김포시 봉화로 13,경기도 김포시 사우동 248-1,37.61805106,126.7159441,S
요구르트 풍무점(13명),031-996-0084,경기도 김포시 김포대로802번길 36,경기도 김포시 사우동 357-9,37.61932468,126.7248307,S
삼보슈퍼,031-983-9911,,경기도 김포시 사우동 856,37.624296,126.7239627,S
진흥훼미리마트,031-998-1090,,경기도 김포시 사우동 857,37.62368623,126.7251883,S
경희대 석사,,경기도 김포시 풍년로 22,경기도 김포시 사우동 862번지 예원유치원,37.62285582,126.7245457,S
세븐일레븐,,경기도 김포시 사우중로 92,경기도 김포시 사우동 872,37.62235358,126.7217158,S
엘리트체육관,,경기도 김포시 사우중로74번길 29,경기도 김포시 사우동 880,37.62160524,126.7214921,S
CU 사우공원점,031-986-6776,경기도 김포시 돌문로 50-12,경기도 김포시 사우동 941,37.61985811,126.7180553,S
빵굽는 샹띠베이커리,031-984-1647,경기도 김포시 돌문로 56,경기도 김포시 사우동 992,37.61977473,126.7171041,S
경희대멘토태권도장,,,경기도 김포시 양촌읍 구래리,,,F
웨이스탑,,경기도 김포시 양촌읍 김포대로 1765,경기도 김포시 양촌읍 누산리 643-9,37.66995539,126.6434416,S
153문구점,,,경기도 김포시 양촌읍 양곡리,,,F
후암사랑샘 약국,,,경기도 김포시 양촌읍 양곡리,,,F
강철태권도장,,경기도 김포시 양촌읍 양곡3로1번길 26-34,경기도 김포시 양촌읍 양곡리 1320-3번지,37.6540429,126.6313364,S
DM태권도 성균관대,,경기도 김포시 양촌읍 양곡3로1번길 26-30,경기도 김포시 양촌읍 양곡리 1320-4번지,37.65412452,126.631506,S
양곡우체국,031-981-0205,경기도 김포시 양촌읍 양곡로 540,경기도 김포시 양촌읍 양곡리 417-1 양곡우체국,37.65501705,126.623195,S
주공할인마트,031-997-6563,,경기도 김포시 양촌읍 양곡리 441-7,37.65623968,126.6223615,S
충의태권도,,경기도 김포시 양촌읍 양곡로390번길 7,경기도 김포시 양촌읍 양곡리 610,37.66281949,126.6345907,S
한성약국,,,경기도 김포시 양촌읍 유현리,,,F
강철 학운태권도,,경기도 김포시 양촌읍 황금로70번길 5-73,경기도 김포시 양촌읍 학운리 2824,37.6207473,126.6241396,S
황금마트,,경기도 김포시 양촌읍 황금로48번길 5-37,경기도 김포시 양촌읍 학운리 2836,37.61994141,126.6256955,S
테라스크린,031-986-8248,경기도 김포시 김포한강11로438번길 123,경기도 김포시 운양동 1288-1번지 하늘빛마을한신더휴테라스 1201동 116호,37.65068621,126.6952971,S
개곡슈퍼,031-987-0156,,경기도 김포시 월곶면 개곡리 266,,,F
CU김포월곶,031-997-5146,경기도 김포시 월곶면 애기봉로 13,경기도 김포시 월곶면 군하리 55-7,37.71639732,126.5557855,S
성원부동산,,경기도 김포시 김포한강1로78번길 17,경기도 김포시 장기동 1395,37.64443927,126.6708374,S
야구르트 장기점,,경기도 김포시 김포한강1로78번길 32-21,경기도 김포시 장기동 1465,37.64318197,126.672282,S
산들바이크,,경기도 김포시 김포한강1로78번길 61-48,경기도 김포시 장기동 1487,37.64471376,126.6723318,S
지웰책마루 작은 도서관,,경기도 김포시 김포한강2로 168,경기도 김포시 장기동 1624번지 신영지웰아파트 상가동,37.64274335,126.6669133,S
스마일     부동산,031-983-8822,경기도 김포시 김포한강2로 189,경기도 김포시 장기동 1636번지 제일풍경채아파트 상가 101호,37.6428232,126.6633326,S
파리바게트 김포초당마을점,,경기도 김포시 김포한강2로 103,경기도 김포시 장기동 2065-1번지 초당마을우남퍼스트빌 1324,37.63693063,126.6727742,S
센타약국,,,경기도 김포시 장기동 월드상가 112호,,,F
번영슈퍼,031-988-0855,경기도 김포시 통진읍 김포대로2250번길 23-8,경기도 김포시 통진읍 마송리 114-10,37.69154308,126.5964785,S
GS 25 마송주공점,031-989-3815,,경기도 김포시 통진읍 마송리 493,37.69215314,126.5957269,S
주공할인마트(10단지),031-985-3121,,경기도 김포시 통진읍 마송리 498번지 매수리마을휴먼시아10단지아파트,37.69023242,126.5926422,S
새천년약국,031-981-9098,경기도 김포시 통진읍 조강로 35,경기도 김포시 통진읍 마송리 63-14,37.68928856,126.6011165,S
그랜드마트,031-989-5840,,경기도 김포시 통진읍 서암리,,,F
용인대TJ복싱체육관,031-988-3135,,경기도 김포시 통진읍 서암리,,,F
대명약국,031-988-0863,경기도 김포시 통진읍 조강로36번길 14,경기도 김포시 통진읍 서암리 714-4,37.69001151,126.6017588,S
통진우체국,031-987-2005,경기도 김포시 통진읍 조강로 52,경기도 김포시 통진읍 서암리 718-2,37.69053739,126.6000894,S
미니스톱,031-934-0367,경기도 김포시 통진읍 조강로 86,경기도 김포시 통진읍 서암리 762-1,37.69259094,126.5972778,S
문구랑팬시랑,031-984-4443,경기도 김포시 통진읍 조강로 106,경기도 김포시 통진읍 서암리 836-6,37.69309713,126.5951435,S
동경돈까스,031-997-8929,,경기도 김포시 통진읍 옹정리 107-23,37.69967464,126.5724749,S
인천대강남태권도,,경기도 김포시 풍무로 109,경기도 김포시 풍무동 109-5,37.60536176,126.7219383,S
서해할인마트,031-988-7877,,경기도 김포시 풍무동 149,37.60560943,126.7276337,S
찬란한태권도장,,경기도 김포시 풍무로69번길 17,경기도 김포시 풍무동 428,37.60174521,126.7204118,S
소망아트,031-984-5400,경기도 김포시 유현로33번길 36-12,경기도 김포시 풍무동 561-6,37.59816381,126.7261098,S
용인대석사태권도,,경기도 김포시 유현로33번길 36-12,경기도 김포시 풍무동 561-6 부광아이노스,37.59816381,126.7261098,S
건강프라자약국,031-998-0295,,경기도 김포시 풍무동 583-6,37.59741819,126.7232138,S
대성지물포,031-988-8474,경기도 김포시 하성면 애기봉로 860,경기도 김포시 하성면 마곡리 616-13,37.71953827,126.6328016,S
세븐일레븐,031-988-3172,,경기도 김포시 하성면 마곡리 634,,,F
나들가게-찬이마트,031-591-8040,,경기도 남양주시 금곡동,,,F
베스트올편의점,031-592-7235,경기도 남양주시 금곡로 75,경기도 남양주시 금곡동 158-23,37.63472173,127.2112822,S
베스트올편의점,031-592-7235,경기도 남양주시 금곡로 75,경기도 남양주시 금곡동 158-23,37.63472173,127.2112822,S
양미용실,031-559-9875,경기도 남양주시 금곡로 65-15,경기도 남양주시 금곡동 159-50,37.6350573,127.2100256,S
양미용실,031-559-9875,경기도 남양주시 금곡로 65-15,경기도 남양주시 금곡동 159-50,37.6350573,127.2100256,S
위드미 남양주금곡점,,경기도 남양주시 사릉로34번길 24,경기도 남양주시 금곡동 159-66번지,37.63610968,127.2110255,S
위드미남양주금곡점,,경기도 남양주시 사릉로34번길 24,경기도 남양주시 금곡동 159-66번지,37.63610968,127.2110255,S
삼성한우정육점,,경기도 남양주시 경춘로995번길 19,경기도 남양주시 금곡동 164-32,37.63611578,127.2126682,S
삼성한우정육점,031-592-4190,경기도 남양주시 경춘로995번길 19,경기도 남양주시 금곡동 164-32,37.63611578,127.2126682,S
마을약국,031-592-7123,경기도 남양주시 금곡로 16,경기도 남양주시 금곡동 432-31,37.63349852,127.2048892,S
마을약국,031-592-7132,경기도 남양주시 금곡로 16,경기도 남양주시 금곡동 432-31,37.63349852,127.2048892,S
강남정육식당,031-591-7848,경기도 남양주시 홍유릉로248번길 64-37,경기도 남양주시 금곡동 454-21,37.62928367,127.2038922,S
강남정육식당,031-591-7848,경기도 남양주시 홍유릉로248번길 64-37,경기도 남양주시 금곡동 454-21,37.62928367,127.2038922,S
CU편의점(금곡대로점),031-593-0488,경기도 남양주시 홍유릉로 324,경기도 남양주시 금곡동 664-6,37.6302571,127.2036683,S
CU편의점(금곡대로점),031-593-0488,경기도 남양주시 홍유릉로 324,경기도 남양주시 금곡동 664-6,37.6302571,127.2036683,S
나들가게-찬이마트,031-591-8040,경기도 남양주시 경춘로885번길 11-1,경기도 남양주시 금곡동 694-31,37.6331646,127.1998922,S
새싹문구슈퍼,031-566-2878,경기도 남양주시 경춘로476번길 10-23,경기도 남양주시 다산동 3096-23번지,37.60859107,127.1671769,S
부동산베스트,031-558-8245,경기도 남양주시 도농로 34,경기도 남양주시 다산동 4002-1번지 부영1단지 상가 ( 교문앞),37.61159181,127.1602068,S
부영문구,031-558-1630,경기도 남양주시 도농로 34,경기도 남양주시 다산동 4002-1번지 부영1단지 상가 (교문앞),37.61159181,127.1602068,S
부동산리더,031-558-4200,경기도 남양주시 도농로 34,경기도 남양주시 다산동 4002-1번지 부영1단지 상가 (교문앞),37.61159181,127.1602068,S
부영온누리약국,031-557-8110,경기도 남양주시 도농로 34,경기도 남양주시 다산동 4002-1번지 부영2단지 상가,37.61159181,127.1602068,S
부영공인중개사,031-558-4040,경기도 남양주시 도농로 34,경기도 남양주시 다산동 4002-1번지 부영2단지 상가,37.61159181,127.1602068,S
부영문구,031-558-1630,,경기도 남양주시 다산동 4002-1번지 부영아파트1단지 상가 105호,37.61159181,127.1602068,S
한인희온누리약국,031-568-1207,경기도 남양주시 도농로 34,경기도 남양주시 다산동 4002-1번지 부영애시앙상가내(농협365코너옆),37.61159181,127.1602068,S
우남슈퍼-나들가게,070-8776-9490,경기도 남양주시 도농로중촌2길 26-21,경기도 남양주시 다산동 4068-2번지,37.60861482,127.1562254,S
흰둥이문구,031-569-1553,경기도 남양주시 미금로42번길 8,경기도 남양주시 다산동 4299-25번지,37.60872728,127.1528394,S
흰둥이문구,031-569-1553,경기도 남양주시 미금로42번길 9-7,경기도 남양주시 다산동 4299-7번지,37.60928592,127.1528179,S
CU편의점(드림프라자),031-566-6777,경기도 남양주시 가운로1길 1,경기도 남양주시 다산동 666-3,37.60434124,127.1584816,S
이지컴퓨터,031-565-1014,,경기도 남양주시 도농동,,,F
우남슈퍼-나들가게,070-8776-9499,,경기도 남양주시 도농동 1층 1호,,,F
부동산리더,031-558-4200,,경기도 남양주시 도농동 2-1 부영@ 1단지 상가,,,F
부영온누리약국,031-557-8110,,경기도 남양주시 도농동 부영@ 2단지 상가,,,F
부영공인중개사,031-558-4040,,경기도 남양주시 도농동 부영@ 상가건물,,,F
부동산베스트,031-558-8245,,경기도 남양주시 도농동 부영@1단지,,,F
한인회약국,031-568-1207,,경기도 남양주시 도농동 부영애시앙,,,F
CU편의점(별내중앙점),031-572-8228,,경기도 남양주시 별내5로 5-0 5번길 49,,,F
CU편의점(별내스마트점),031-523-6533,경기도 남양주시 별내중앙로 36-19,경기도 남양주시 별내동 1007번지,37.64655429,127.1258684,S
CU편의점(별내스마트점),,경기도 남양주시 별내중앙로 36-19,경기도 남양주시 별내동 1007번지,37.64655429,127.1258684,S
CU편의점(별내스위첸점),031-529-3346,,경기도 남양주시 별내동 1072번지 남양주별내스위첸아파트,37.65605086,127.1165348,S
CU편의점(별내스위첸점),031-529-3346,,경기도 남양주시 별내동 1072번지 남양주별내스위첸아파트 81,37.65605086,127.1165348,S
CU편의점(별내중앙점),031-572-8228,경기도 남양주시 별내5로5번길 49,경기도 남양주시 별내동 1078-5번지,37.65261072,127.1148978,S
스타복권 편의점,031-572-9379,경기도 남양주시 덕송2로10번길 27-16,경기도 남양주시 별내동 827-1,37.6673584,127.1161213,S
GS25(별내아이파크점),031-571-1178,경기도 남양주시 덕송2로6번길 2-32,경기도 남양주시 별내동 850-5번지,37.66516078,127.1153473,S
GS25(별내아이파크점),031-571-1178,경기도 남양주시 덕송2로6번길 2-32,경기도 남양주시 별내동 850-5번지,37.66516078,127.1153473,S
별내CU한내들점,031-571-1178,,경기도 남양주시 별내동 869번지 남양주별내유승한내들,37.66432795,127.1281984,S
CU편의점(별내한내들점),031-528-2645,,경기도 남양주시 별내동 869번지 남양주별내유승한내들,37.66432795,127.1281984,S
처갓집,,경기도 남양주시 별내면 청학로68번길 23-1,경기도 남양주시 별내면 청학리 409-3 주공3단지 상가 1층,37.7095202,127.1195082,S
처갓집,031-821-7766,경기도 남양주시 별내면 청학로68번길 23-1,경기도 남양주시 별내면 청학리 409-3번지,37.7095202,127.1195082,S
21C청학보건당,031-821-1653,경기도 남양주시 별내면 청학로중앙길 9,경기도 남양주시 별내면 청학리 413,37.70860237,127.1183387,S
GS25(남양주청학점),031-847-6211,경기도 남양주시 별내면 청학로중앙길 9,경기도 남양주시 별내면 청학리 413번지,37.70860237,127.1183387,S
21C청학보건당,031-821-1654,경기도 남양주시 별내면 청학로중앙길 9,경기도 남양주시 별내면 청학리 413번지,37.70860237,127.1183387,S
gs25시(남양주청학점),031-847-6211,경기도 남양주시 별내면 청학로중앙길 9,경기도 남양주시 별내면 청학리 413번지,37.70860237,127.1183387,S
CU편의점(청학점),031-516-7817,경기도 남양주시 별내면 청학로68번길 3,경기도 남양주시 별내면 청학리 418-3번지,37.70757451,127.1191196,S
CU편의점(청학점),031-848-6108,경기도 남양주시 별내면 청학로68번길 3,경기도 남양주시 별내면 청학리 418-3번지,37.70757451,127.1191196,S
온누리약국,031-841-0554,,경기도 남양주시 별내면 청학리 461-6,,,F
온누리약국,031-841-0554,경기도 남양주시 별내면 청학로114번길 10,경기도 남양주시 별내면 청학리 461-8 461-6,37.70910149,127.1146198,S
CU편의점(남양주청학점),031-840-8910,,경기도 남양주시 별내면 청학리 500-43,37.70779672,127.1128941,S
CU남양주청학점,031-840-8910,,경기도 남양주시 별내면 청학리 500-43,37.70779672,127.1128941,S
대박공인중개사,031-593-6601,,경기도 남양주시 수동면 수산리 10,,,F
대성부동산,031-591-4186,,경기도 남양주시 수동면 수산리 10-6,37.73382221,127.2945767,S
대박공인중개사,031-593-6601,경기도 남양주시 수동면 비룡로1243번길 3,경기도 남양주시 수동면 수산리 10-9,37.73357084,127.2942127,S
대성부동산,031-591-4186,경기도 남양주시 수동면 비룡로 1237,경기도 남양주시 수동면 수산리 5-5,37.73343362,127.2950517,S
운수우체국,031-593-6000,경기도 남양주시 수동면 비룡로 720-1,경기도 남양주시 수동면 운수리 103-3번지,37.70307834,127.326876,S
한우리마트,031-591-0503,,경기도 남양주시 수동면 운수리 13,,,F
나들가게-한우리마트,031-591-0503,경기도 남양주시 수동면 남가로 1607,경기도 남양주시 수동면 운수리 13-7,37.69618858,127.335656,S
운수우체국,031-593-6000,경기도 남양주시 수동면 비룡로 733-29,경기도 남양주시 수동면 운수리 99-1,37.70313755,127.3249939,S
늘푸른약국,031-591-4994,경기도 남양주시 수동면 비룡로 788,경기도 남양주시 수동면 입석리 332-10,37.70810662,127.3232349,S
늘푸른약국,031-591-4994,경기도 남양주시 수동면 비룡로 788,경기도 남양주시 수동면 입석리 332-10번지,37.70810662,127.3232349,S
수동공판장,031-593-6025,,경기도 남양주시 수동면 입석리 464,,,F
수동공판장,031-593-0625,경기도 남양주시 수동면 비룡로 827,경기도 남양주시 수동면 입석리 464-9,37.71113752,127.3218757,S
행운세탁소,031-593-6587,경기도 남양주시 수동면 비룡로 817,경기도 남양주시 수동면 입석리 465-1,37.71032756,127.3215434,S
행운세탁소,031-593-6587,경기도 남양주시 수동면 비룡로 817,경기도 남양주시 수동면 입석리 465-1,37.71032756,127.3215434,S
남양문구,031-593-9686,,경기도 남양주시 수동면 입석리 466-1,37.71129856,127.322296,S
남양문구,031-593-9686,경기도 남양주시 수동면 비룡로 827-2,경기도 남양주시 수동면 입석리 466-4번지,37.71138047,127.3219902,S
온누리(양지)약국,031-574-2878,,경기도 남양주시 오남읍 양지리,,,F
중앙약국,031-574-0088,,경기도 남양주시 오남읍 양지리 105,37.69757963,127.2023076,S
중앙약국,031-574-0088,,경기도 남양주시 오남읍 양지리 105,37.69757963,127.2023076,S
양지오토카센타(카젠),031-573-1111,경기도 남양주시 오남읍 양지로290번길 2,경기도 남양주시 오남읍 양지리 664-2,37.70065804,127.1931425,S
양지오토카센타,031-573-1111,경기도 남양주시 오남읍 양지로290번길 2,경기도 남양주시 오남읍 양지리 664-2,37.70065804,127.1931425,S
온누리(양지)약국,031-574-2879,경기도 남양주시 오남읍 진건오남로 792,경기도 남양주시 오남읍 양지리 95-5,37.69760439,127.2036457,S
오남24시편의점,031-527-1009,,경기도 남양주시 오남읍 오남리,,,F
오남24시편의점,031-572-1009,경기도 남양주시 오남읍 진건오남로 692,경기도 남양주시 오남읍 오남리 134-10,37.6944421,127.2139209,S
현대약국,031-573-8022,경기도 남양주시 오남읍 진건오남로 664,경기도 남양주시 오남읍 오남리 191-7,37.69188163,127.2148887,S
현대약국,031-573-8022,경기도 남양주시 오남읍 진건오남로 664,경기도 남양주시 오남읍 오남리 191-7,37.69188163,127.2148887,S
알파문구,031-514-3824,경기도 남양주시 오남읍 진건오남로 576,경기도 남양주시 오남읍 오남리 326,37.68496916,127.2110032,S
알파문구,031-573-5700,경기도 남양주시 오남읍 진건오남로 576,경기도 남양주시 오남읍 오남리 326,37.68496916,127.2110032,S
굿모닝약국,031-574-4881,경기도 남양주시 오남읍 진건오남로 512,경기도 남양주시 오남읍 오남리 477-1,37.67927687,127.2099784,S
신굿모닝약국,031-574-4881,경기도 남양주시 오남읍 진건오남로 512,경기도 남양주시 오남읍 오남리 477-1,37.67927687,127.2099784,S
싱싱마트,031-528-2672,,경기도 남양주시 오남읍 오남리 888,37.69657413,127.1947194,S
싱싱마트,031-528-2672,,경기도 남양주시 오남읍 오남리 888,37.69657413,127.1947194,S
119안전센터,031-577-0119,경기도 남양주시 와부읍 덕소로97번길 34-2,경기도 남양주시 와부읍 덕소리 110-6,37.58570003,127.2161383,S
119안전센터,031-577-0119,경기도 남양주시 와부읍 덕소로97번길 34-2,경기도 남양주시 와부읍 덕소리 110-6,37.58570003,127.2161383,S
코오롱문구,031-521-3350,경기도 남양주시 와부읍 덕소로97번길 71,경기도 남양주시 와부읍 덕소리 161-1번지,37.58898344,127.2189783,S
코오롱문구,031-521-3350,,경기도 남양주시 와부읍 덕소리 454-4 코오롱(아)정문,37.58850981,127.21181,S
덕소우체국,031-577-6767,경기도 남양주시 와부읍 덕소로71번길 12,경기도 남양주시 와부읍 덕소리 459-13번지,37.58750963,127.2118638,S
덕소우체국,031-577-6767,경기도 남양주시 와부읍 덕소로71번길 12,경기도 남양주시 와부읍 덕소리 459-13번지 덕소우체국,37.58750963,127.2118638,S
혜인온누리약국,031-521-4646,경기도 남양주시 와부읍 덕소로97번길 15-3,경기도 남양주시 와부읍 덕소리 477-2,37.58611897,127.2136374,S
혜인온누리약국,031-521-4646,경기도 남양주시 와부읍 덕소로97번길 15-3,경기도 남양주시 와부읍 덕소리 477-2,37.58611897,127.2136374,S
세븐일레븐(덕소아이비),031-521-4916,경기도 남양주시 와부읍 수레로9번길 13,경기도 남양주시 와부읍 덕소리 487-1,37.58789419,127.2134726,S
세븐일레븐(덕소아이비점),031-521-4916,경기도 남양주시 와부읍 수레로9번길 13,경기도 남양주시 와부읍 덕소리 487-1,37.58789419,127.2134726,S
오뚜기문구,031-577-9130,경기도 남양주시 와부읍 수레로 26-12,경기도 남양주시 와부읍 덕소리 488-5,37.58686524,127.2145,S
오뚜기문구,031-577-9130,경기도 남양주시 와부읍 수레로 24,경기도 남양주시 와부읍 덕소리 492,37.58690098,127.2146699,S
세븐일레븐(덕소 1호점),031-577-5878,경기도 남양주시 와부읍 덕소로116번길 17-6,경기도 남양주시 와부읍 덕소리 517-2,37.58442203,127.2103041,S
세븐일레븐(덕소1호점),031-577-5878,경기도 남양주시 와부읍 덕소로116번길 17-6,경기도 남양주시 와부읍 덕소리 517-2,37.58442203,127.2103041,S
카이로약국,031-577-0188,,경기도 남양주시 와부읍 도곡리 1012,37.57747967,127.2229185,S
도심문구,031-577-2659,경기도 남양주시 와부읍 도곡길 45-59,경기도 남양주시 와부읍 도곡리 1049-8,37.57950926,127.2264452,S
도심문구,031-577-2659,경기도 남양주시 와부읍 도곡길 45-59,경기도 남양주시 와부읍 도곡리 1049-8,37.57950926,127.2264452,S
승준문구점,031-521-3526,경기도 남양주시 와부읍 덕소로 177,경기도 남양주시 와부읍 도곡리 976-1,37.58092302,127.2171436,S
승준문구점,031-521-3523,경기도 남양주시 와부읍 덕소로 177,경기도 남양주시 와부읍 도곡리 976-1,37.58092302,127.2171436,S
실로암안경점,031-577-3373,경기도 남양주시 와부읍 덕소로 205,경기도 남양주시 와부읍 도곡리 982-8,37.57926203,127.2188936,S
실로암안경점,031-577-3373,경기도 남양주시 와부읍 덕소로 205,경기도 남양주시 와부읍 도곡리 982-8,37.57926203,127.2188936,S
다나약국,031-577-8339,경기도 남양주시 와부읍 덕소로 226,경기도 남양주시 와부읍 도곡리 996-6,37.57942907,127.2211469,S
다나약국,031-577-8339,경기도 남양주시 와부읍 덕소로 226,경기도 남양주시 와부읍 도곡리 996-6,37.57942907,127.2211469,S
카이로 약국,031-577-0188,,경기도 남양주시 와부읍 도곡리 우성@ 상가,,,F
조안우체국,031-576-8500,경기도 남양주시 조안면 북한강로499번길 4,경기도 남양주시 조안면 송촌리 284-6,37.56490022,127.3189422,S
조안우체국,031-576-8001,경기도 남양주시 조안면 북한강로499번길 4,경기도 남양주시 조안면 송촌리 284-6,37.56490022,127.3189422,S
용진부동산,031-576-5575,경기도 남양주시 조안면 북한강로 528,경기도 남양주시 조안면 송촌리 732-3,37.56651522,127.3214618,S
용진부동산,031-576-5575,경기도 남양주시 조안면 북한강로 528,경기도 남양주시 조안면 송촌리 732-3,37.56651522,127.3214618,S
새싹문구,031-566-2878,,경기도 남양주시 지금동,,,F
동성마트,031-573-3656,,경기도 남양주시 진건읍 신월리 99-1,37.65946812,127.1740887,S
진건우체국,031-573-4007,,경기도 남양주시 진건읍 용정리,,,F
청우마트-나들가게,031-528-7445,경기도 남양주시 진건읍 진건오남로86번길 44-21,경기도 남양주시 진건읍 용정리 751-13,37.65775222,127.1828675,S
청우마트-나들가게,031-528-7445,경기도 남양주시 진건읍 진건오남로86번길 44-21,경기도 남양주시 진건읍 용정리 751-13,37.65775222,127.1828675,S
한신마트,031-574-4999,경기도 남양주시 진건읍 진건오남로86번길 32,경기도 남양주시 진건읍 용정리 751-7,37.65822331,127.1811688,S
세븐일레븐(진건),031-576-2294,경기도 남양주시 진건읍 진건오남로105번길 14,경기도 남양주시 진건읍 용정리 761-8번지,37.66024786,127.1768897,S
세븐일레븐(진건),031-576-2294,경기도 남양주시 진건읍 진건오남로105번길 14,경기도 남양주시 진건읍 용정리 761-8번지,37.66024786,127.1768897,S
농우씨앗(사능종묘사),031-574-5550,경기도 남양주시 진건읍 사릉로 446,경기도 남양주시 진건읍 용정리 771-11,37.65799732,127.1756152,S
사능종묘사,031-573-8330,경기도 남양주시 진건읍 사릉로 446,경기도 남양주시 진건읍 용정리 771-11,37.65799732,127.1756152,S
리빙아울렛,031-573-4883,경기도 남양주시 진건읍 사릉로 426-26,경기도 남양주시 진건읍 용정리 774-6,37.65803065,127.1774512,S
리빙아울렛,031-573-4883,경기도 남양주시 진건읍 사릉로 426-26,경기도 남양주시 진건읍 용정리 774-6,37.65803065,127.1774512,S
바다약국,031-573-4883,경기도 남양주시 진건읍 진건오남로 69,경기도 남양주시 진건읍 용정리 779,37.65680415,127.1782529,S
바다약국,031-573-4821,경기도 남양주시 진건읍 진건오남로 69,경기도 남양주시 진건읍 용정리 779,37.65680415,127.1782529,S
한신마트,031-574-4999,,경기도 남양주시 진건읍 용정리 790,37.6580237,127.1820862,S
부영상회,031-573-1860,경기도 남양주시 진건읍 사릉로 394,경기도 남양주시 진건읍 용정리 793-2,37.65607971,127.180699,S
부영상회,031-573-1860,경기도 남양주시 진건읍 사릉로392번길 2,경기도 남양주시 진건읍 용정리 793-24,37.65602523,127.1809822,S
진건우체국,031-573-4007,경기도 남양주시 진건읍 사릉로 405,경기도 남양주시 진건읍 용정리 794-12,37.65597364,127.1793389,S
다보약국,031-573-9028,경기도 남양주시 진건읍 사릉로 431,경기도 남양주시 진건읍 용정리 794-135,37.65702279,127.1766215,S
다보약국,031-573-9028,경기도 남양주시 진건읍 사릉로 431,경기도 남양주시 진건읍 용정리 794-135,37.65702279,127.1766215,S
수호부동산,031-528-0031,경기도 남양주시 진건읍 진건오남로 59,경기도 남양주시 진건읍 용정리 794-3,37.65602844,127.1788404,S
수호부동산,031-528-4420,경기도 남양주시 진건읍 사릉로 411-2,경기도 남양주시 진건읍 용정리 796-3번지,37.65630833,127.1784444,S
CU편의점(진건현대점),031-574-5550,경기도 남양주시 진건읍 진건오남로105번길 24-5,경기도 남양주시 진건읍 용정리 816-5,37.66086263,127.1754518,S
CU편의점(진건현대점),031-573-1795,경기도 남양주시 진건읍 진건오남로105번길 24-5,경기도 남양주시 진건읍 용정리 816-5,37.66086263,127.1754518,S
동성마트,031-573-3656,,경기도 남양주시 진건읍 용정리 99,37.68246463,127.1893663,S
리빙아울렛,031-574-0006,,경기도 남양주시 진접읍 금곡리,,,F
리빙아울렛,031-574-0006,경기도 남양주시 진접읍 해밀예당1로 294,경기도 남양주시 진접읍 금곡리 1002,37.72487805,127.2079388,S
라온헤어,,경기도 남양주시 진접읍 해밀예당3로 102,경기도 남양주시 진접읍 금곡리 1075번지,37.71849761,127.1983033,S
라온헤어,031-571-7749,경기도 남양주시 진접읍 해밀예당3로 102,경기도 남양주시 진접읍 금곡리 1075번지,37.71849761,127.1983033,S
마린분식,031-571-7749,경기도 남양주시 진접읍 해밀예당3로 69,경기도 남양주시 진접읍 금곡리 1093번지,37.71597775,127.1965954,S
마리앤모리,,경기도 남양주시 진접읍 해밀예당3로 69,경기도 남양주시 진접읍 금곡리 1093번지,37.71597775,127.1965954,S
색연필(해밀마을),031-574-8909,경기도 남양주시 진접읍 해밀예당3로 61,경기도 남양주시 진접읍 금곡리 1094,37.71502083,127.1977498,S
색연필(해밀마을),031-574-8909,경기도 남양주시 진접읍 해밀예당3로 61,경기도 남양주시 진접읍 금곡리 1094,37.71502083,127.1977498,S
해동검도 해밀관,031-575-3335,경기도 남양주시 진접읍 해밀예당3로 60,경기도 남양주시 진접읍 금곡리 1095번지,37.71512803,127.1983058,S
해동검도 해밀관,031-575-3335,경기도 남양주시 진접읍 해밀예당3로 60,경기도 남양주시 진접읍 금곡리 1095번지,37.71512803,127.1983058,S
예랑어린이집,031-528-0450,경기도 남양주시 진접읍 주곡로 113,경기도 남양주시 진접읍 금곡리 551-3,37.7251883,127.2056711,S
진접예랑어린이집,031-528-0450,경기도 남양주시 진접읍 주곡로 113,경기도 남양주시 진접읍 금곡리 551-3,37.7251883,127.2056711,S
성림바이크,031-571-8764,경기도 남양주시 진접읍 해밀예당3로 118,경기도 남양주시 진접읍 금곡리 974,37.72015781,127.1968332,S
성림바이크,031-571-8764,경기도 남양주시 진접읍 해밀예당3로 118,경기도 남양주시 진접읍 금곡리 974,37.72015781,127.1968332,S
원일빅마트,031-526-6971,,경기도 남양주시 진접읍 내각리 192-4,,,F
연세약국,031-572-9100,경기도 남양주시 진접읍 내각1로 75,경기도 남양주시 진접읍 내각리 318-10,37.70454696,127.1651658,S
연세약국,031-572-9100,경기도 남양주시 진접읍 내각1로 75,경기도 남양주시 진접읍 내각리 318-10,37.70454696,127.1651658,S
유피부동산,031-559-9000,경기도 남양주시 진접읍 광릉내로 15,경기도 남양주시 진접읍 부평리 613-9,37.74162636,127.1975812,S
유피부동산,031-556-9000,경기도 남양주시 진접읍 광릉내로 15,경기도 남양주시 진접읍 부평리 613-9,37.74162636,127.1975812,S
푸른마트,031-571-1551,,경기도 남양주시 진접읍 부평리 735-3,37.7311053,127.1963059,S
푸른마트,031-571-1551,,경기도 남양주시 진접읍 부평리 735-3,37.7311053,127.1963059,S
김밥천국,031-527-0248,,경기도 남양주시 진접읍 부평리 764,37.73912864,127.198834,S
색연필,031-575-3084,,경기도 남양주시 진접읍 부평리 764,37.73912864,127.198834,S
김밥천국,031-527-0248,,경기도 남양주시 진접읍 부평리 764,37.73912864,127.198834,S
색연필,031-575-3084,,경기도 남양주시 진접읍 부평리 764,37.73912864,127.198834,S
FILAintimo언더웨어,031-572-9582,경기도 남양주시 진접읍 장현로 114,경기도 남양주시 진접읍 장현리 351-36,37.71974519,127.1843671,S
FILAintimo(언더웨어),031-572-9582,경기도 남양주시 진접읍 장현로 114,경기도 남양주시 진접읍 장현리 351-36,37.71974519,127.1843671,S
장현문구,031-572-3752,경기도 남양주시 진접읍 장현로87번길 5,경기도 남양주시 진접읍 장현리 390-1,37.71857782,127.181835,S
장현문구,031-572-3752,경기도 남양주시 진접읍 장현로87번길 5,경기도 남양주시 진접읍 장현리 390-1,37.71857782,127.181835,S
CU편의점(장현금강점),031-572-0625,경기도 남양주시 진접읍 금강로1573번길 5,경기도 남양주시 진접읍 장현리 44-12,37.73168635,127.1935848,S
CU편의점(장현금강점),031-527-0625,경기도 남양주시 진접읍 금강로1573번길 5,경기도 남양주시 진접읍 장현리 44-12,37.73168635,127.1935848,S
신광명슈퍼-나들가게,031-571-2452,경기도 남양주시 진접읍 봉현로 82,경기도 남양주시 진접읍 장현리 550,37.7198835,127.1762805,S
신광명슈퍼-나들가게,031-571-2452,경기도 남양주시 진접읍 봉현로 82,경기도 남양주시 진접읍 장현리 550,37.7198835,127.1762805,S
세일상사(문구),031-529-8272,경기도 남양주시 진접읍 광릉내로82번길 30,경기도 남양주시 진접읍 팔야리 779-5,37.74504301,127.20703,S
세일 컴퓨터 상사,031-529-8272,경기도 남양주시 진접읍 광릉내로82번길 30,경기도 남양주시 진접읍 팔야리 779-5,37.74504301,127.20703,S
블링블링마트,031-574-2870,,경기도 남양주시 진접읍 팔야리 780,37.74501919,127.2051692,S
블링블링마트,031-574-2870,경기도 남양주시 진접읍 광릉내로82번길 12,경기도 남양주시 진접읍 팔야리 780-1,37.74482161,127.2048056,S
삼거리 할인마트,031-527-7467,,경기도 남양주시 진접읍 팔야리 787,,,F
삼거리 할인마트,031-527-7467,,경기도 남양주시 진접읍 팔야리 787,,,F
글셈종합학원,031-572-0138,경기도 남양주시 퇴계원읍 퇴계원로78번길 9,경기도 남양주시 퇴계원읍 퇴계원리 109-5,37.65314688,127.1441917,S
글셈종합학원,031-572-0138,경기도 남양주시 퇴계원읍 퇴계원로78번길 9,경기도 남양주시 퇴계원읍 퇴계원리 109-5,37.65314688,127.1441917,S
성심약국,031-572-8101,경기도 남양주시 퇴계원읍 경춘북로 558,경기도 남양주시 퇴계원읍 퇴계원리 208-12,37.64806361,127.1456891,S
성심약국,031-572-8101,경기도 남양주시 퇴계원읍 경춘북로 558,경기도 남양주시 퇴계원읍 퇴계원리 208-12,37.64806361,127.1456891,S
퇴계원우체국,031-579-9115,경기도 남양주시 퇴계원읍 경춘북로 533,경기도 남양주시 퇴계원읍 퇴계원리 218-77,37.64763437,127.1430028,S
퇴계원우체국,031-572-9115,경기도 남양주시 퇴계원읍 경춘북로 533,경기도 남양주시 퇴계원읍 퇴계원리 218-77,37.64763437,127.1430028,S
오성슈퍼,031-571-8454,경기도 남양주시 퇴계원읍 퇴계원로59번길 24,경기도 남양주시 퇴계원읍 퇴계원리 273-11,37.65356528,127.1408496,S
우성슈퍼,031-571-8454,경기도 남양주시 퇴계원읍 퇴계원로59번길 24,경기도 남양주시 퇴계원읍 퇴계원리 273-11,37.65356528,127.1408496,S
용한약국,031-527-2372,경기도 남양주시 퇴계원읍 퇴계원로 93,경기도 남양주시 퇴계원읍 퇴계원리 90,37.654868,127.1439683,S
용한약국,031-527-1188,경기도 남양주시 퇴계원읍 퇴계원로 93,경기도 남양주시 퇴계원읍 퇴계원리 90,37.654868,127.1439683,S
예스체인지 문구점,031-593-4239,,경기도 남양주시 평내동,,,F
코렉스자전거,031-591-2063,,경기도 남양주시 평내동 120-1,37.65128251,127.2394423,S
코렉스자전거,031-591-2063,,경기도 남양주시 평내동 120-1,37.65128251,127.2394423,S
예스체인지문구점,031-593-4239,경기도 남양주시 경춘로 1292-31,경기도 남양주시 평내동 269-4,37.64858265,127.2379154,S
예다움쌀마트,031-595-7774,,경기도 남양주시 평내동 562,37.64047478,127.2329159,S
GS25편의점(데시앙점),031-594-0816,,경기도 남양주시 평내동 592,37.64697638,127.2391907,S
예다움 쌀마트,031-595-7774,,경기도 남양주시 평내동 592,37.64697638,127.2391907,S
GS25시(평내데시앙점),031-594-4043,경기도 남양주시 경춘로1286번길 39,경기도 남양주시 평내동 592 상록상가,37.64697638,127.2391907,S
인터넷공인중개사,031-511-8600,,경기도 남양주시 평내동 599,37.64586304,127.241748,S
인터넷공인중개사,031-511-8600,,경기도 남양주시 평내동 599,37.64586304,127.241748,S
파리바게뜨(평내점),031-559-3636,경기도 남양주시 평내로 136,경기도 남양주시 평내동 599 중흥상가,37.64586304,127.241748,S
파리바게뜨(평내점),031-559-3636,,경기도 남양주시 평내동 599. 중흥 1동 상가 102호,,,F
신명마트,031-516-2525,,경기도 남양주시 평내동 601,37.64444404,127.2395,S
바른손문구,031-511-9174,경기도 남양주시 의안로 155-1,경기도 남양주시 평내동 601 신명상가,37.64444404,127.2395,S
신명할인마트,031-516-2525,경기도 남양주시 의안로 155-1,경기도 남양주시 평내동 601 신명상가,37.64444404,127.2395,S
크레파스 문구점,031-594-5625,경기도 남양주시 의안로 129-3,경기도 남양주시 평내동 604-5,37.64255555,127.2377264,S
크레파스문구점,031-593-7395,경기도 남양주시 의안로 129-3,경기도 남양주시 평내동 604-5,37.64255555,127.2377264,S
증흥마트,031-559-4952,,경기도 남양주시 평내동 608,37.64441895,127.243001,S
중흥마트 나들가게,031-559-4952,경기도 남양주시 의안로 182,경기도 남양주시 평내동 608 중흥상가,37.64441895,127.243001,S
한아름마트,031-591-3533,,경기도 남양주시 평내동 87-3,37.64878168,127.2419953,S
한아름마트,031-597-3533,,경기도 남양주시 평내동 87-3,37.64878168,127.2419953,S
바른손문구,031-511-9174,,경기도 남양주시 평내동 산,,,F
파리바게뜨(호평점),031-594-8833,,경기도 남양주시 호평동,,,F
모란꽃집,031-559-7877,경기도 남양주시 호평로45번길 42,경기도 남양주시 호평동 176-5,37.65899747,127.2469691,S
모란꽃집,031-559-7873,경기도 남양주시 호평로45번길 42,경기도 남양주시 호평동 176-5,37.65899747,127.2469691,S
파리바게뜨(호평),031-594-8834,경기도 남양주시 천마산로 2,경기도 남양주시 호평동 269-1,37.66197582,127.2488262,S
천마산손두부,031-559-8849,경기도 남양주시 천마산로 113,경기도 남양주시 호평동 344-2,37.67052985,127.2512801,S
천마산손두부,031-559-8849,경기도 남양주시 천마산로 113,경기도 남양주시 호평동 344-2,37.67052985,127.2512801,S
GS25(천마산점),031-591-9353,,경기도 남양주시 호평동 371번지 라인그린아파트,37.66916851,127.2473878,S
GS편의점(호평),031-591-9353,경기도 남양주시 천마산로 65-1,경기도 남양주시 호평동 371번지 라인상가,37.66916851,127.2473878,S
아리엔,031-511-0399,경기도 남양주시 천마산로 59-1,경기도 남양주시 호평동 373-1번지,37.66719482,127.2476647,S
아리엔(일식당),031-511-0399,경기도 남양주시 천마산로 64,경기도 남양주시 호평동 386-4,37.66713945,127.2482992,S
천마마트,031-591-7080,경기도 남양주시 천마산로 14,경기도 남양주시 호평동 405-15,37.66305824,127.2482178,S
천마마트,031-591-7080,경기도 남양주시 천마산로 14,경기도 남양주시 호평동 405-15,37.66305824,127.2482178,S
첨단주유소,031-594-5149,경기도 남양주시 늘을1로 59,경기도 남양주시 호평동 551-1,37.6574186,127.2391898,S
첨단주유소,031-594-5149,경기도 남양주시 늘을1로 59,경기도 남양주시 호평동 551-1,37.6574186,127.2391898,S
우리농수산할인마트,031-594-9941,경기도 남양주시 늘을3로 65-12,경기도 남양주시 호평동 617-1,37.66016694,127.2478343,S
우리농수산할인마트,031-534-4754,경기도 남양주시 늘을3로 65-12,경기도 남양주시 호평동 617-1번지,37.66016694,127.2478343,S
CU편의점(남양주호평점),031-594-3199,경기도 남양주시 호평로60번길 9,경기도 남양주시 호평동 649-9,37.65502461,127.2467748,S
CU편의점(남양주호평점),031-594-3199,경기도 남양주시 호평로60번길 9,경기도 남양주시 호평동 649-9,37.65502461,127.2467748,S
띠아모,031-591-5956,경기도 남양주시 늘을3로25번길 10-1,경기도 남양주시 호평동 714-2,37.66011472,127.2425529,S
띠아모,031-591-5956,경기도 남양주시 늘을3로25번길 10-1,경기도 남양주시 호평동 714-2,37.66011472,127.2425529,S
한남슈퍼,031-593-3341,경기도 남양주시 화도읍 비룡로 333,경기도 남양주시 화도읍 가곡리 165-1,37.68077934,127.3031318,S
한남슈퍼,031-593-3341,경기도 남양주시 화도읍 비룡로 333,경기도 남양주시 화도읍 가곡리 165-1,37.68077934,127.3031318,S
GS25(가곡점),031-591-7002,,경기도 남양주시 화도읍 가곡리 279-2,37.68493889,127.3077739,S
GS25(가곡점),031-591-7002,,경기도 남양주시 화도읍 가곡리 279-2,37.68493889,127.3077739,S
외할머니집,031-512-8092,경기도 남양주시 화도읍 비룡로379번길 19-1,경기도 남양주시 화도읍 가곡리 286-9,37.6855291,127.3059965,S
외할머니집,031-512-8092,경기도 남양주시 화도읍 비룡로379번길 19-1,경기도 남양주시 화도읍 가곡리 286-9,37.6855291,127.3059965,S
다시면가,031-594-1388,경기도 남양주시 화도읍 경춘로 2348,경기도 남양주시 화도읍 답내리 185-3,37.65778003,127.348381,S
다시면가,031-594-1388,경기도 남양주시 화도읍 경춘로 2348,경기도 남양주시 화도읍 답내리 185-3,37.65778003,127.348381,S
세븐일레븐(마석점),031-595-6316,경기도 남양주시 화도읍 마석중앙로 63-1,경기도 남양주시 화도읍 마석우리 292-27번지,37.65250614,127.3070181,S
세븐일레븐(마석점),031-595-6316,경기도 남양주시 화도읍 마석중앙로 63-1,경기도 남양주시 화도읍 마석우리 292-27번지,37.65250614,127.3070181,S
정흥교헤어샵,031-594-0020,경기도 남양주시 화도읍 마석로61번길 18-25,경기도 남양주시 화도읍 마석우리 379-3,37.65733393,127.3040459,S
정흥교헤어샵,031-594-0026,경기도 남양주시 화도읍 마석로61번길 18-25,경기도 남양주시 화도읍 마석우리 379-3,37.65733393,127.3040459,S
샤프걸미용실,031-591-0256,경기도 남양주시 화도읍 마석로 74,경기도 남양주시 화도읍 마석우리 404-7,37.65741947,127.3058255,S
샤프걸미용실,031-591-0256,경기도 남양주시 화도읍 마석로 74,경기도 남양주시 화도읍 마석우리 404-7,37.65741947,127.3058255,S
청개구리&amp;베짱이문구,031-593-2887,경기도 남양주시 화도읍 마석로45번길 37,경기도 남양주시 화도읍 마석우리 587,37.65478098,127.3017692,S
청개구리앤베짱이,031-593-2887,경기도 남양주시 화도읍 마석로45번길 37,경기도 남양주시 화도읍 마석우리 587,37.65478098,127.3017692,S
한림슈퍼-나들가게,031-593-7627,경기도 남양주시 화도읍 먹갓로28번길 72-3,경기도 남양주시 화도읍 묵현리 369-1,37.65719765,127.2825475,S
한림슈퍼-나들가게,031-593-7627,경기도 남양주시 화도읍 먹갓로28번길 72-3,경기도 남양주시 화도읍 묵현리 369-1,37.65719765,127.2825475,S
GS25(화도묵현점),031-593-9127,경기도 남양주시 화도읍 먹갓로 30,경기도 남양주시 화도읍 묵현리 435-4,37.65680177,127.274602,S
Gs25(화도묵현점),031-593-9167,경기도 남양주시 화도읍 먹갓로 30,경기도 남양주시 화도읍 묵현리 435-4,37.65680177,127.274602,S
미니스톱(천마산점),031-595-5178,경기도 남양주시 화도읍 먹갓로 40,경기도 남양주시 화도읍 묵현리 437,37.6577483,127.2743787,S
미니스톱(천마산점),031-595-5178,경기도 남양주시 화도읍 먹갓로 40,경기도 남양주시 화도읍 묵현리 437,37.6577483,127.2743787,S
첫단추유치원,031-594-4300,경기도 남양주시 화도읍 비룡로116번길 31,경기도 남양주시 화도읍 묵현리 53,37.66402618,127.3047983,S
첫단추유치원,031-594-4300,경기도 남양주시 화도읍 비룡로116번길 33-1,경기도 남양주시 화도읍 묵현리 53-4,37.66433294,127.3046296,S
세븐일레븐(묵현천마점),031-511-0798,경기도 남양주시 화도읍 먹갓로서길 31-16,경기도 남양주시 화도읍 묵현리 572-6,37.65980722,127.2723236,S
세븐일레븐(묵현천마점),031-511-0798,,경기도 남양주시 화도읍 묵현리 572-8,,,F
쭈노떡볶이(마석점),031-511-4548,경기도 남양주시 화도읍 비룡로 117,경기도 남양주시 화도읍 묵현리 70-3,37.66222127,127.3024337,S
쭈노떡볶이,031-511-4548,경기도 남양주시 화도읍 비룡로 117,경기도 남양주시 화도읍 묵현리 70-3,37.66222127,127.3024337,S
화도성중화요리,031-592-4774,,경기도 남양주시 화도읍 차산리 63 63-39,,,F
화도성중화요리,031-592-4773,경기도 남양주시 화도읍 수레로 1118,경기도 남양주시 화도읍 차산리 63-39,37.63689119,127.3039634,S
크린스피드,070-4063-4726,경기도 남양주시 화도읍 수레로 1111,경기도 남양주시 화도읍 차산리 83-6,37.63678469,127.3033285,S
크린스피드,070-4063-4726,경기도 남양주시 화도읍 수레로 1111,경기도 남양주시 화도읍 차산리 83-6,37.63678469,127.3033285,S
블럭왕,031-595-1097,경기도 남양주시 화도읍 수레로 1105-31,경기도 남양주시 화도읍 차산리 84-11,37.63689664,127.3018222,S
블럭왕,031-595-1007,경기도 남양주시 화도읍 수레로 1105-31,경기도 남양주시 화도읍 차산리 84-11,37.63689664,127.3018222,S
CU화도보경점,031-511-7839,경기도 남양주시 화도읍 수레로1120번길 60,경기도 남양주시 화도읍 창현리 320-5번지,37.63642488,127.3101021,S
세븐일레븐(화도창현점),031-512-9409,경기도 남양주시 화도읍 창현로 51,경기도 남양주시 화도읍 창현리 555번지,37.64611362,127.3053264,S
세븐일레븐(화도창현점),031-511-9409,경기도 남양주시 화도읍 창현로 51,경기도 남양주시 화도읍 창현리 555번지,37.64611362,127.3053264,S
신한거성문구,031-511-8881,,경기도 남양주시 화도읍 창현리 745,37.64853383,127.3031266,S
신한거성문구,031-511-8881,,경기도 남양주시 화도읍 창현리 764,37.64569449,127.3000785,S
동두천우체국(광암동지점),031-867-2105,경기도 동두천시 광암로17번길 40,경기도 동두천시 광암동 486-6번지,37.89677549,127.084206,S
재미난시골밥상,031-867-5340,경기도 동두천시 원터강변로31번길 5,경기도 동두천시 동두천동 209-15번지,37.92440603,127.0538692,S
좋은문구,031-861-1030,,경기도 동두천시 동두천동 211-1번지 유진빌라,37.92416259,127.0543126,S
송내자동차공업사,031-865-8102,경기도 동두천시 원터강변로17번길 10,경기도 동두천시 동두천동 211-6번지,37.92393798,127.052868,S
신흥간병요양원,031-867-4051,경기도 동두천시 강변로702번길 13-11,경기도 동두천시 동두천동 539-2,37.92987621,127.0501536,S
신흥신망애복지원,031-861-5500,경기도 동두천시 강변로702번길 13-11,경기도 동두천시 동두천동 539-2번지,37.92987621,127.0501536,S
GS25시 보산점,031-868-6383,경기도 동두천시 동광로 154,경기도 동두천시 보산동 407-48번지,37.91374503,127.0604234,S
봉암마트,031-867-5420,경기도 동두천시 봉동로40번길 47,경기도 동두천시 상봉암동 236-3번지,37.94809959,127.0556718,S
상봉슈퍼,031-866-4799,경기도 동두천시 봉동로 96-2,경기도 동두천시 상봉암동 261-4번지,37.9499927,127.0530108,S
애신아동복지센터,031-865-3978,,경기도 동두천시 생연동,,,F
나누미 할인마트,031-868-6161,,경기도 동두천시 생연동 163-4번지 생연주공아파트,37.91315776,127.0637321,S
동두천아동센터,031-865-4898,경기도 동두천시 장고갯로138번길 16-13,경기도 동두천시 생연동 214-12번지,37.90638095,127.0671491,S
에이스슈퍼,031-864-1267,경기도 동두천시 행선로 98,경기도 동두천시 생연동 342-4번지,37.89674347,127.0624225,S
그린슈퍼마켓,031-862-7960,경기도 동두천시 행선로 101,경기도 동두천시 생연동 349-1번지,37.89722105,127.0622637,S
로얄미용실,031-868-4486,경기도 동두천시 생골로 24,경기도 동두천시 생연동 391-1번지,37.90005096,127.0602649,S
우리약국,031-868-5005,경기도 동두천시 생골로 36,경기도 동두천시 생연동 400-4번지,37.9000772,127.0618681,S
갑순이네떡볶이,031-867-6835,경기도 동두천시 생골로 35,경기도 동두천시 생연동 406-1번지,37.90041049,127.0619821,S
생연할인마트,031-863-1327,경기도 동두천시 송터로 17,경기도 동두천시 생연동 465-5번지,37.90879823,127.0618182,S
화이트문구,031-863-4946,경기도 동두천시 평화로 2456-2,경기도 동두천시 생연동 480-19번지,37.90696205,127.0582918,S
동두천우체국,031-862-2003,경기도 동두천시 평화로 2518,경기도 동두천시 생연동 508-1번지,37.91260196,127.0580913,S
동두천메디슨,031-865-2614,경기도 동두천시 중앙로 269,경기도 동두천시 생연동 593-7번지,37.90544154,127.0537083,S
금호슈퍼,,,경기도 동두천시 생연동 786-2번지 금호연립주택,37.89802054,127.0470976,S
좋은열매어린이집,031-864-8852,경기도 동두천시 강변로336번길 18,경기도 동두천시 생연동 791-2번지,37.89963324,127.0470076,S
푸른정육점,031-861-0780,경기도 동두천시 삼육사로 896,경기도 동두천시 생연동 806-3번지,37.89985759,127.049293,S
야쿠르트(동두천지점),031-861-1555,경기도 동두천시 생연로 103-5,경기도 동두천시 생연동 819-41번지,37.90180327,127.050147,S
파주슈퍼,031-865-3283,경기도 동두천시 생연로 102,경기도 동두천시 생연동 821-29번지,37.90157784,127.0506244,S
오렌지25시,031-859-7852,경기도 동두천시 동두천로 13,경기도 동두천시 송내동 695-2번지,37.88271995,127.0538973,S
동두천우체국(중앙동지점),031-862-2001,경기도 동두천시 중앙로273번길 23,경기도 동두천시 중앙동 590-11,37.9058835,127.0525374,S
이마트24,031-863-6053,,경기도 동두천시 지행동 270-3번지 지행주공아파트,37.89477229,127.0586237,S
대방할인마트,031-861-5584,경기도 동두천시 동두천로 151,경기도 동두천시 지행동 692-3번지 대방샤인힐 상가단지,37.89490928,127.0545651,S
동두천우체국(지행동지점),031-857-0700,경기도 동두천시 중앙로 136,경기도 동두천시 지행동 692-7번지,37.89352273,127.0525064,S
지행온누리,031-864-1475,경기도 동두천시 지행로 59,경기도 동두천시 지행동 695번지,37.89257623,127.0537336,S
이담종합문구,031-861-0511,,경기도 동두천시 지행동 717-2,37.89068608,127.0493441,S
길손식당,031-868-5777,경기도 동두천시 탑신로 127,경기도 동두천시 탑동동 354-2번지,37.89282768,127.109008,S
바른손약국,032-343-4217,,경기도 부천시 경인로536번길 20-0,,,F
코리아문구,032-673-3321,경기도 부천시 고강로 92,경기도 부천시 고강동 282-1,37.52995344,126.8144926,S
한국야쿠르트,032-672-8615,경기도 부천시 고강로92번길 29,경기도 부천시 고강동 286-5,37.5286742,126.8145976,S
세븐일레븐(은데미점),032-684-5940,경기도 부천시 성지로 20,경기도 부천시 고강동 298-18,37.52092147,126.8119588,S
CU편의점(고강점),032-675-9920,경기도 부천시 원종로 120,경기도 부천시 고강동 304-4,37.52386986,126.8132975,S
흴라 인티모,032-382-0839,경기도 부천시 역곡로481번길 14,경기도 부천시 고강동 319-5,37.52787366,126.8154368,S
늘사랑교회,032-676-7202,경기도 부천시 고리울로 80,경기도 부천시 고강동 329-4,37.52664456,126.8246485,S
CU편의점(고강삼원),032-683-0905,경기도 부천시 고리울로8번길 29,경기도 부천시 고강동 372,37.52642543,126.8169337,S
에이스팬시문구,032-682-8825,경기도 부천시 고리울로28번길 14,경기도 부천시 고강동 377-28,37.52681576,126.8187881,S
재은문구,032-675-1768,경기도 부천시 고리울로40번길 23,경기도 부천시 고강동 388-15,37.52620543,126.8202942,S
초이스헤어아트,032-348-9702,경기도 부천시 경인로484번길 76,경기도 부천시 괴안동 100번지,37.4800692,126.8111584,S
신대원,032-344-0048,경기도 부천시 경인로484번길 35,경기도 부천시 괴안동 107-14번지,37.48184276,126.8102946,S
88마트,032-343-9842,경기도 부천시 경인로498번길 77,경기도 부천시 괴안동 119번지,37.48087383,126.8128522,S
삼보할인마트,070-7531-7621,경기도 부천시 부광로 19,경기도 부천시 괴안동 125-5번지,37.4829561,126.8134574,S
GS25편의점(소사타운점),032-345-9416,경기도 부천시 경인로526번길 27-1,경기도 부천시 괴안동 130-4번지,37.48398431,126.8141332,S
하은문구,032-344-1565,경기도 부천시 경인로536번길 26,경기도 부천시 괴안동 130-9번지,37.48437338,126.8151611,S
린헤어,070-7321-2595,경기도 부천시 부광로35번길 69,경기도 부천시 괴안동 165-12번지,37.48340368,126.8173004,S
원마트,032-343-0957,경기도 부천시 안곡로 196,경기도 부천시 괴안동 185-24번지,37.48556883,126.8190702,S
꿈나무아동종합상담소,032-344-7205,경기도 부천시 안곡로194번길 14,경기도 부천시 괴안동 185-35번지,37.4862101,126.820075,S
대도문구,032-344-7278,경기도 부천시 경인로 583,경기도 부천시 괴안동 190-13번지,37.48767733,126.8191781,S
미니스톱,032-341-5315,경기도 부천시 소안로 42-1,경기도 부천시 괴안동 204-1번지,37.47698247,126.8025177,S
한국문구,032-341-7707,경기도 부천시 소사동로 91,경기도 부천시 괴안동 238-7번지,37.47398521,126.8043231,S
양지문구,,경기도 부천시 안곡로 136,경기도 부천시 괴안동 26-1번지,37.48117624,126.8160397,S
GS25     (부천삼익점),032-347-2555,,경기도 부천시 괴안동 30-4,37.47679204,126.8017946,S
CEO헤어갤러리,032-349-0333,경기도 부천시 안곡로 36,경기도 부천시 괴안동 71-1번지,37.47887185,126.8062661,S
낙원마트,032-341-5868,경기도 부천시 안곡로79번길 17,경기도 부천시 괴안동 99-11번지,37.47904162,126.8108783,S
종원슈퍼(나들가게),,경기도 부천시 삼작로118번길 18,경기도 부천시 내동 17-3,37.5193404,126.7740234,S
(부천시)CU도당누리점,032-676-4939,경기도 부천시 성곡로69번길 93,경기도 부천시 도당동 105-4번지,37.51859069,126.7923844,S
(부천시)셀파우등생교실,032-675-6958,경기도 부천시 신흥로335번길 12,경기도 부천시 도당동 214-28,37.51356601,126.7745161,S
(부천시)천지공인중개사무소,032-677-3339,경기도 부천시 수도로66번길 23,경기도 부천시 도당동 214-41,37.51342997,126.7740528,S
(부천시)농심슈퍼,032-676-6060,경기도 부천시 부천로263번길 18,경기도 부천시 도당동 263-29,37.50736867,126.784827,S
(부천시)좋은친구들문구점,032-675-0413,경기도 부천시 길주로391번길 72,경기도 부천시 도당동 264-24,37.50659478,126.7853495,S
(부천시)성가약국,032-676-3200,경기도 부천시 부천로245번길 40,경기도 부천시 도당동 265-39,37.50587169,126.7841075,S
(부천시)럭키슈퍼,032-683-9256,,경기도 부천시 도당동 266-4,37.50620365,126.7833488,S
한우세계,032-344-9997,경기도 부천시 범안로 130-21,경기도 부천시 범박동 151-2번지,37.46899056,126.8078519,S
힐공인중개사무소,032-344-5888,경기도 부천시 범안로 77,경기도 부천시 범박동 154-2번지,37.47454366,126.8096576,S
CU편의점(소사현대점),032-664-2693,,경기도 부천시 범박동 154-2번지 부천범박힐스테이트1단지,37.47454366,126.8096576,S
CU편의점(소사3단지점),032-344-7600,,경기도 부천시 범박동 155-1번지 부천범박힐스테이트3단지아파트,37.47254462,126.8103749,S
씨채널안경점,032-351-0110,경기도 부천시 범안로 117,경기도 부천시 범박동 155-2번지,37.47112897,126.8097116,S
CU편의점(범박휴먼시아점),032-343-3088,,경기도 부천시 범박동 234-1번지 범박휴먼시아,37.46690364,126.8155213,S
동군텔레콤,032-348-8887,경기도 부천시 범안로 98,경기도 부천시 범박동 32-6번지,37.47298335,126.8086894,S
VAVAS,,경기도 부천시 범안로 118,경기도 부천시 범박동 35-1번지,37.47120869,126.8088749,S
베스트올 편의점(삼정점),032-677-3526,경기도 부천시 석천로 356,경기도 부천시 삼정동 276,37.51836995,126.7662101,S
뽀빠이문구,032-674-7938,경기도 부천시 중동로 437,경기도 부천시 삼정동 296-32,37.51887262,126.7697943,S
대웅약국,032-677-0541,경기도 부천시 중동로 426,경기도 부천시 삼정동 303-1,37.5176753,126.7702957,S
가나다문구,,경기도 부천시 평천로721번길 60,경기도 부천시 삼정동 305,37.51773062,126.7709403,S
천성슈퍼(나들가게),032-682-7712,경기도 부천시 중동로426번길 24,경기도 부천시 삼정동 305-14,37.5177329,126.7721054,S
CU편의점(신흥점),032-681-9479,경기도 부천시 중동로 418,경기도 부천시 삼정동 308-15,37.5170356,126.7702977,S
그린비제과,032-672-1923,,경기도 부천시 삼정동 그린비제과,,,F
(부천시)최호진건강원,032-661-3939,,경기도 부천시 상동 235-101,,,F
(부천시)상동세일마트(구코사마트),032-665-0420,경기도 부천시 장말로200번길 29,경기도 부천시 상동 238,37.49134457,126.7638869,S
(부천시)제일슈퍼,032-652-8563,,경기도 부천시 상동 241번지 241,,,F
(부천시)시민슈퍼,032-612-7973,경기도 부천시 부일로275번길 14,경기도 부천시 상동 319,37.48876112,126.7606387,S
(부천시)역전슈퍼,032-665-6420,경기도 부천시 석천로2번길 74,경기도 부천시 상동 346-5,37.48695617,126.7636069,S
(부천시)한아름문구,032-321-9131,,경기도 부천시 상동 393,37.49559156,126.7524409,S
(부천시)상동하이저마켓(구나들마트),032-323-0039,,경기도 부천시 상동 394-1,37.49551463,126.7544087,S
(부천시)카페장바리,070-4111-0220,,경기도 부천시 상동 399,37.4900638,126.7502431,S
부천삼광전문요양원,032-327-4491,경기도 부천시 석천로 81,경기도 부천시 상동 416-3,37.49465378,126.7607214,S
(부천시)야쿠르트 중동영업점,032-325-0931,경기도 부천시 석천로53번길 11,경기도 부천시 상동 423-4,37.49212033,126.7599155,S
(부천시)오이소마트,032-324-2584,경기도 부천시 석천로25번길 34,경기도 부천시 상동 440-8,37.48992713,126.7580795,S
(부천시)GS25(송내점),032-321-6558,경기도 부천시 부일로221번길 26,경기도 부천시 상동 455번지,37.48942527,126.7550508,S
(부천시)다정마트,032-321-5072,경기도 부천시 평천로 597,경기도 부천시 상동 499-2,37.51575565,126.7566944,S
(부천시)상동할인마트,032-328-3989,경기도 부천시 도약로 33,경기도 부천시 상동 523-11,37.5125406,126.7531081,S
(부천시)동물사랑병원,032-323-8275,경기도 부천시 도약로 39,경기도 부천시 상동 524-4.,37.51245196,126.7537984,S
(부천시)서울메디칼약국,032-217-0065,경기도 부천시 송내대로265번길 85,경기도 부천시 상동 535-1,37.5072624,126.7538609,S
(부천시)GS25(상동서해점),032-327-8328,경기도 부천시 소향로 25,경기도 부천시 상동 546-6,37.50386764,126.7505472,S
(부천시)상동자이공인중개사,032-328-5088,,경기도 부천시 상동 571-1,37.50012444,126.7486373,S
(부천시) 색연필문구점,032-328-7774,,경기도 부천시 상동 571-6번지 백송마을풍림아이원,37.49851094,126.7483035,S
(부천시)송림마트,032-323-8464,경기도 부천시 부흥로 2,경기도 부천시 상동 573-2,37.49690383,126.7426322,S
(부천시)목련약국,032-327-1972,,경기도 부천시 상동 590-1,37.49284143,126.7472485,S
(부천시)상동세종약국,032-328-3560,경기도 부천시 상이로 43,경기도 부천시 상동 600-6,37.49265347,126.7436872,S
(부천시)부천상동우체국,032-323-4082,경기도 부천시 호수로3번길 8-21,경기도 부천시 상동 상동 506-7,37.51392293,126.7506604,S
(부천시)메디칼약국,032-324-6877,경기도 부천시 도약로 29,경기도 부천시 상동 상동 523-8,37.51259337,126.7524972,S
성가요양원,032-340-5100,,경기도 부천시 소사동 2-5,37.48806476,126.7921874,S
짱문구,032-351-0555,경기도 부천시 호현로 447,경기도 부천시 소사본동 144-8번지,37.47779406,126.7925441,S
학생문구,032-349-9986,경기도 부천시 호현로447번길 9,경기도 부천시 소사본동 147-10번지,37.47767624,126.7921601,S
금나와라뚝딱,032-347-5591,경기도 부천시 호현로447번길 5-3,경기도 부천시 소사본동 147-18번지,37.47759574,126.7924881,S
서산문구,032-345-2687,경기도 부천시 은성로 57,경기도 부천시 소사본동 159-48번지,37.47523406,126.7969942,S
미니스톱(소사대로점),032-345-3386,경기도 부천시 은성로 45,경기도 부천시 소사본동 160-44번지,37.47526781,126.7956827,S
신세계이동통신,070-8621-7502,경기도 부천시 소사로 171,경기도 부천시 소사본동 183-11번지,37.47340192,126.795213,S
와와문구,032-345-3892,경기도 부천시 소사로170번길 34,경기도 부천시 소사본동 201-8번지,37.47320744,126.7973502,S
크레용미술교습소,032-347-4599,경기도 부천시 소사로170번길 18,경기도 부천시 소사본동 202-30번지,37.47317877,126.796412,S
자매슈퍼,032-347-0230,경기도 부천시 소사로147번길 23,경기도 부천시 소사본동 234-16번지,37.47123773,126.7941903,S
미니스톱(소사점),032-341-3768,경기도 부천시 은성로 86,경기도 부천시 소사본동 244-86번지,37.47484329,126.8002737,S
영마트,032-341-7439,경기도 부천시 소사로102번길 59,경기도 부천시 소사본동 400-9번지,37.46896068,126.8007983,S
소사로 우체국,032-342-0005,경기도 부천시 소사로 88,경기도 부천시 소사본동 404-2번지,37.46656932,126.7986344,S
ILS영어학원,032-344-0594,경기도 부천시 은성로 135,경기도 부천시 소사본동 407-6번지,37.47293207,126.8049364,S
세븐일레븐(신한대점),032-342-0144,경기도 부천시 호현로 491-1,경기도 부천시 소사본동 94-15번지,37.48134428,126.7927151,S
GS25(송내중앙점),032-667-8655,경기도 부천시 송내대로42번길 58,경기도 부천시 송내동 300번지 102호 103호,37.48693242,126.7564385,S
송내G마트,032-663-2657,경기도 부천시 경인로9번길 78,경기도 부천시 송내동 336-11번지,37.4864016,126.756802,S
위드미편의점,,경기도 부천시 송내대로42번길 97,경기도 부천시 송내동 355-8번지,37.48695551,126.7588807,S
GS25편의점(부천직업학교점),,경기도 부천시 경인로53번길 8,경기도 부천시 송내동 366번지,37.48387047,126.7614912,S
가나종합동물병원,032-665-0075,경기도 부천시 중동로 57,경기도 부천시 송내동 368번지,37.48571099,126.7627177,S
삼성전자 부천점,032-668-9521,경기도 부천시 경인로 107,경기도 부천시 송내동 374-2번지,37.48420622,126.767132,S
예스25시,032-611-5595,경기도 부천시 중동로 30,경기도 부천시 송내동 392-1번지,37.48262313,126.7639712,S
에덴파크,,경기도 부천시 경인로60번길 20,경기도 부천시 송내동 398-1번지,37.48270854,126.7616645,S
코사마트,032-611-1686,,경기도 부천시 송내동 402-4번지 우성빌라,37.48245295,126.7600485,S
미니마트,032-665-3321,경기도 부천시 경인로120번길 88-4,경기도 부천시 송내동 454번지,37.48018132,126.7684109,S
학교문구점,032-666-8835,경기도 부천시 성주로 117-2,경기도 부천시 송내동 461-17번지,37.4796788,126.7694413,S
복사골문구,032-652-2082,,경기도 부천시 송내동 607번지 삼익아파트,37.48062642,126.770241,S
GS편의점(송내삼익점),,경기도 부천시 경인로134번길 89,경기도 부천시 송내동 609번지,37.48001326,126.7699942,S
양천수퍼,032-663-4166,경기도 부천시 마니로24번길 24,경기도 부천시 송내동 679-9번지,37.47753743,126.7709628,S
세미할인마트,032-652-6241,경기도 부천시 서촌로36번길 4,경기도 부천시 송내동 693-7번지,37.48632103,126.7443875,S
늘푸른마트,032-652-1020,경기도 부천시 송내대로27번길 32,경기도 부천시 송내동 701-7번지,37.4860662,126.7515568,S
솔안팬지문구,032-662-4455,경기도 부천시 경인로1185번길 42,경기도 부천시 송내동 704-12번지,37.48554413,126.751796,S
CU편의점(송내남부역점),,경기도 부천시 송내대로 25,경기도 부천시 송내동 708-1번지,37.48578936,126.7527223,S
(부천시)영화식품,032-655-4484,경기도 부천시 부흥로351번길 42,경기도 부천시 심곡동 107-26,37.49429033,126.7821624,S
엠마우스쉼터,032-663-8274,경기도 부천시 부천로80번길 45,경기도 부천시 심곡동 126-12,37.49006322,126.7862455,S
(부천시)365plus(부천늘사랑점),032-665-0508,경기도 부천시 부일로 524,경기도 부천시 심곡동 129-2,37.4848771,126.7882165,S
(부천시)만물슈퍼,032-611-4052,경기도 부천시 부일로505번길 12,경기도 부천시 심곡동 138-4,37.4857663,126.7866875,S
(부천시)하나공인중개사,032-611-5700,,경기도 부천시 심곡동 153-2,,,F
(부천시)이화약국,032-652-8684,경기도 부천시 장말로 294,경기도 부천시 심곡동 326,37.49109541,126.7745732,S
(부천시)통큰딱다구리문구,032-651-7087,경기도 부천시 장말로294번길 7,경기도 부천시 심곡동 326-41,37.49098725,126.7745509,S
(부천시)크레페와 친구들,,경기도 부천시 장말로 310,경기도 부천시 심곡동 327,37.49081937,126.7762702,S
(부천시)8080마트,032-613-8080,경기도 부천시 조마루로358번길 17,경기도 부천시 심곡동 33,37.49750915,126.7833856,S
(부천시)자매분식,032-662-3363,경기도 부천시 장말로294번길 38,경기도 부천시 심곡동 334-9,37.48962573,126.7740236,S
(부천시)심곡동우체국,032-215-9978,경기도 부천시 부일로 412,경기도 부천시 심곡동 360-22.,37.48659276,126.7757741,S
(부천시)한국야쿠르트심곡점,032-656-7581,경기도 부천시 부흥로374번길 25-5,경기도 부천시 심곡동 366-4,37.49073244,126.7827156,S
(부천시)심곡할인마트,032-666-5329,,경기도 부천시 심곡동 367-2,37.4911469,126.7827144,S
(부천시)코사나들가게,032-614-4561,경기도 부천시 신흥로112번길 28,경기도 부천시 심곡동 440-3,37.4932587,126.7797682,S
(부천시)중앙샛별문구,032-666-6789,경기도 부천시 조마루로366번길 67,경기도 부천시 심곡동 92-13,37.49550816,126.7829617,S
(부천시)원미쎈타약국,032-668-7313,경기도 부천시 부천로 107,경기도 부천시 심곡동 93-13,37.49373626,126.7846065,S
목향마트,032-611-4513,,경기도 부천시 심곡본동 581-15번지 목향아트빌,37.48006731,126.7746068,S
낙원슈퍼,032-652-2810,경기도 부천시 경인로194번길 64,경기도 부천시 심곡본동 600-12번지,37.48089916,126.7761305,S
강남분식,,경기도 부천시 심곡로67번길 15,경기도 부천시 심곡본동 619-1번지,37.47770864,126.7756088,S
봉구스밥버거,,경기도 부천시 심곡로77번길 5,경기도 부천시 심곡본동 630-25번지,37.4770411,126.7751926,S
동진하이퍼,032-668-3880,경기도 부천시 경인로216번길 78,경기도 부천시 심곡본동 648-11번지,37.47973275,126.7786892,S
마리오슈퍼,032-667-5368,경기도 부천시 성주로 267,경기도 부천시 심곡본동 675-1번지,37.48220759,126.7819379,S
욱일문구,032-668-6385,경기도 부천시 성주로 257-1,경기도 부천시 심곡본동 678-17번지,37.48137832,126.7817482,S
도날드문구사,032-654-4710,경기도 부천시 성주로 263-3,경기도 부천시 심곡본동 678-2번지,37.48192803,126.7818031,S
대박핫도그,,경기도 부천시 성주로 266,경기도 부천시 심곡본동 731-27번지,37.48190157,126.7821084,S
파랑새문구,032-613-9016,경기도 부천시 심곡로 78,경기도 부천시 심곡본동 804-5번지,37.47709446,126.7748306,S
색종이,032-613-9490,경기도 부천시 심곡로 82-1,경기도 부천시 심곡본동 806-7번지,37.47657145,126.7746061,S
코사마트,032-611-1686,경기도 부천시 심곡로 98,경기도 부천시 심곡본동 810-7번지,37.47554303,126.7739422,S
한국야쿠르트,032-345-2563,,경기도 부천시 안곡로 89-0,,,F
(부천시)멘토공인중개사무소,032-678-8666,경기도 부천시 신흥로321번길 28-20,경기도 부천시 약대동 169-59,37.51300563,126.7736016,S
(부천시)CU약대행운점,032-672-2405,,경기도 부천시 약대동 169-6번지 현대아파트,37.51159071,126.7734137,S
(부천시)한국야쿠르트 약대점,032-678-2174,,경기도 부천시 약대동 175,37.51076039,126.7726924,S
휴먼시아 2단지,032-684-3384,,경기도 부천시 여월동 320-0,37.51292611,126.8043218,S
미가헤어,032-683-7737,경기도 부천시 여월로 60,경기도 부천시 여월동 330 107호,37.51092797,126.8055486,S
색연필,032-679-3555,경기도 부천시 여월로 72,경기도 부천시 여월동 334 103호,37.511677,126.8062706,S
영아트(여월초),032-671-3752,경기도 부천시 성곡로57번길 22-9,경기도 부천시 여월동 54-18,37.51859009,126.7971579,S
(부천시)CU역곡은하점,032-351-6307,경기도 부천시 역곡로20번길 49,경기도 부천시 역곡동 109-19,37.48782146,126.8134565,S
(부천시)한국공인중개사,032-344-8944,,경기도 부천시 역곡동 212-2,37.49278612,126.8135683,S
(부천시)한국마트,032-344-3570,,경기도 부천시 역곡동 212-2,37.49278612,126.8135683,S
(부천시)동네할인마트,032-342-8612,경기도 부천시 부일로791번길 29,경기도 부천시 역곡동 214-19,37.48962739,126.8159282,S
(부천시)CU편의점,032-341-0510,경기도 부천시 부일로 711,경기도 부천시 역곡동 50-2,37.48512875,126.8086806,S
(부천시)세븐일레븐 부천역곡본점,032-344-8422,경기도 부천시 지봉로63번길 20,경기도 부천시 역곡동 63-10번지,37.48753923,126.8061529,S
(부천시)세븐일레븐 역곡현대점,032-341-8188,경기도 부천시 역곡로 61,경기도 부천시 역곡동 65-20,37.49040021,126.809074,S
마마문구,032-671-5616,경기도 부천시 오정로252번길 80,경기도 부천시 오정동 114-54,37.52858806,126.7903765,S
cu편의점(오정구청점),032-679-5031,경기도 부천시 성오로 144,경기도 부천시 오정동 137-35,37.52634157,126.7988788,S
학사슈퍼,032-682-6658,경기도 부천시 오정로252번길 72-1,경기도 부천시 오정동 179-10,37.52837133,126.7901056,S
오정오토바이,032-671-4534,경기도 부천시 오정로 209-4,경기도 부천시 오정동 207-8,37.52739414,126.782936,S
세종문구,032-671-5616,경기도 부천시 오정로252번길 38,경기도 부천시 오정동 546,37.52914286,126.7882707,S
명동일번지,032-683-7288,,경기도 부천시 오정동 566-21,,,F
지혜수퍼(나들가게),,경기도 부천시 상오정로7번길 9,경기도 부천시 오정동 586-6,37.52462224,126.7846297,S
현성슈퍼(나들가게),032-681-1975,경기도 부천시 상오정로 60-5,경기도 부천시 오정동 615 고려상가 1층,37.52325442,126.7904935,S
더존부동산,032-682-7100,,경기도 부천시 오정동 717,37.53078196,126.7829939,S
(부천시)창대마트,032-657-7388,경기도 부천시 원미로 198,경기도 부천시 원미동 1-2,37.50004106,126.7933751,S
(부천시)CU편의점(원미사랑점),032-655-0388,경기도 부천시 조종로 27,경기도 부천시 원미동 103-10,37.49317448,126.787797,S
(부천시)아이마트,032-655-0304,경기도 부천시 원미로 111,경기도 부천시 원미동 115-1,37.49220639,126.7905475,S
(부천시)유림약국,032-665-3793,경기도 부천시 원미로 111,경기도 부천시 원미동 115-1,37.49220639,126.7905475,S
(부천시)캔디문구,032-611-2813,경기도 부천시 조종로 32,경기도 부천시 원미동 122-5,37.49281475,126.7881598,S
(부천시)부천메디칼약국,032-611-4040,경기도 부천시 부천로90번길 8,경기도 부천시 원미동 137-2,37.49192557,126.7847701,S
(부천시)코사마트(구 경진수퍼),032-652-1354,경기도 부천시 부흥로413번길 35,경기도 부천시 원미동 149-45,37.490237,126.7876584,S
(부천시)코사마트,032-652-1354,경기도 부천시 부흥로413번길 35,경기도 부천시 원미동 149-45,37.490237,126.7876584,S
(부천시)한우리마트,032-665-8988,경기도 부천시 원미로144번길 26,경기도 부천시 원미동 166-6,37.49462512,126.7928248,S
(부천시)우신약국,032-651-6524,경기도 부천시 원미로 77,경기도 부천시 원미동 182-3,37.48961943,126.7899329,S
한마음하얀집,032-654-3177,경기도 부천시 부흥로457번길 86,경기도 부천시 원미동 189-243,37.48990219,126.7918543,S
(부천시)원미문구점,032-612-3126,경기도 부천시 원미로57번길 52,경기도 부천시 원미동 197-2,37.48957037,126.7877168,S
(부천시)한빛약국,032-611-6330,경기도 부천시 원미로143번길 12,경기도 부천시 원미동 54-18,37.4954868,126.7909905,S
(부천시)풍전슈퍼,032-644-8909,경기도 부천시 조마루로 428,경기도 부천시 원미동 55-1,37.49700967,126.7910993,S
(부천시)천지약국,032-651-5872,경기도 부천시 원미로 141,경기도 부천시 원미동 77-9,37.49518111,126.7913532,S
(부천시)우등생문구,032-655-7953,경기도 부천시 원미로131번길 22,경기도 부천시 원미동 82-19,37.4944852,126.7901566,S
효마트,032-674-4217,경기도 부천시 상오정로182번길 39,경기도 부천시 원종동 126-12,37.5284493,126.798545,S
샘터부동산,032-682-7200,경기도 부천시 소사로 819,경기도 부천시 원종동 166-8,37.5290632,126.8045506,S
대화약국,032-678-2459,경기도 부천시 원종로 26,경기도 부천시 원종동 217,37.52384338,126.8027092,S
대은약국,032-681-0148,경기도 부천시 소사로808번길 6,경기도 부천시 원종동 231,37.52792893,126.8051305,S
원종슈퍼,032-673-9828,경기도 부천시 소사로808번길 43,경기도 부천시 원종동 241-14,37.52842781,126.8071316,S
보물섬문구,032-672-5350,경기도 부천시 소사로794번길 36,경기도 부천시 원종동 250-2,37.52739984,126.8066252,S
365플러스(부천장원점),032-674-3927,경기도 부천시 소사로748번길 40,경기도 부천시 원종동 283-9,37.52256214,126.8069886,S
cu편의점(앵무점),032-684-2236,경기도 부천시 원종로79번길 26,경기도 부천시 원종동 293,37.52515119,126.8089389,S
샘물약국,032-677-7589,경기도 부천시 성지로101번길 38,경기도 부천시 원종동 299-2,37.52808877,126.8091576,S
CU편의점(부천원종점),032-671-2459,경기도 부천시 삼작로 382,경기도 부천시 원종동 375,37.51959306,126.8041006,S
코사마트(장군슈퍼),032-672-5256,경기도 부천시 소사로 837,경기도 부천시 원종동 70-8,37.53086606,126.8050775,S
영아트(원종초),032-678-6817,,경기도 부천시 원종동 영아트,,,F
크로바베이커리,032-681-0455,경기도 부천시 삼작로 494-1,경기도 부천시 작동 33-11,37.51834269,126.8163769,S
우리슈퍼,032-677-3120,경기도 부천시 까치로 117,경기도 부천시 작동 63-2,37.51670251,126.8050697,S
(부천시)홈 PLUS마트,032-321-1534,,경기도 부천시 중동 1028,37.5096237,126.7629125,S
(부천시)교촌치킨,032-328-1600,경기도 부천시 길주로 199,경기도 부천시 중동 1033-4,37.5049514,126.7648048,S
(부천시)글로리아문구,032-325-4024,경기도 부천시 계남로 165,경기도 부천시 중동 1039-1,37.50747889,126.7671606,S
(부천시)부천중3동우체국,032-324-0005,경기도 부천시 계남로 211,경기도 부천시 중동 1051-4,37.50720115,126.7725223,S
(부천시)크로바문구,032-328-8550,경기도 부천시 계남로 208,경기도 부천시 중동 1052-2,37.50683988,126.7720711,S
(부천시)이플러스마트,032-326-3438,경기도 부천시 계남로 202,경기도 부천시 중동 1052-3,37.50698148,126.77077,S
(부천시)삼성전자중동점,032-322-0880,경기도 부천시 길주로 267,경기도 부천시 중동 1058,37.50395747,126.7724644,S
(부천시)하나공인중개사,032-329-4994,경기도 부천시 신흥로238번길 18,경기도 부천시 중동 1065,37.50456898,126.7765227,S
(부천시)온유동물병원,032-652-7566,경기도 부천시 길주로 342,경기도 부천시 중동 1087,37.50206271,126.7804658,S
(부천시)주연테크컴퓨터,032-323-8119,경기도 부천시 계남로334번길 33-4,경기도 부천시 중동 1096-13.,37.50067628,126.7810467,S
(부천시)심원모닝아트문구점,032-666-2737,경기도 부천시 계남로346번길 40,경기도 부천시 중동 1096-6,37.49995549,126.7810488,S
(부천시)또래문구,032-662-2924,,경기도 부천시 중동 1104,37.50142961,126.7791898,S
(부천시)중동종로약국,032-329-8006,경기도 부천시 부흥로303번길 36,경기도 부천시 중동 1123번지,37.49636927,126.7761629,S
(부천시)세븐일레븐,032-326-6287,경기도 부천시 부흥로303번길 50,경기도 부천시 중동 1128-2,37.49670242,126.7760488,S
(부천시)중동수약국,032-326-9933,경기도 부천시 소향로 246,경기도 부천시 중동 1134,37.50020541,126.775077,S
(부천시)테크노,070-7435-3019,경기도 부천시 중동로248번길 38,경기도 부천시 중동 1145,37.50120615,126.7707766,S
(부천시)시스페이스중동점,032-327-2248,경기도 부천시 중동로 244,경기도 부천시 중동 1152,37.5014549,126.768989,S
(부천시)GS 중동타운점,032-321-1170,경기도 부천시 석천로 174,경기도 부천시 중동 1159-8.,37.50270426,126.7629912,S
(부천시)GS 중동공원점,032-323-6399,경기도 부천시 소향로 149,경기도 부천시 중동 1160-3,37.50209384,126.7641014,S
(부천시)BC800커피부천중앙공원점,032-325-2507,경기도 부천시 소향로 127,경기도 부천시 중동 1161-2번지 소향로 127,37.50236875,126.7619405,S
(부천시)메디팜순천향약국,032-321-6451,,경기도 부천시 중동 1170,37.50101138,126.7590724,S
(부천시)홍진김밥,032-324-2997,,경기도 부천시 중동 1171,37.50128672,126.7615256,S
(부천시)포도할인마트,032-322-1031,,경기도 부천시 중동 1171번지,37.50128672,126.7615256,S
(부천시)아주마트,032-324-2577,,경기도 부천시 중동 1172번지,37.49854103,126.7582775,S
(부천시)문구나라,032-325-2485,,경기도 부천시 중동 1182,37.49742825,126.769386,S
우성문구(미용재료),032-322-8044,,경기도 부천시 중동 1184-6,37.49689824,126.7748043,S
(부천시)그린타운부동산,032-322-7000,,경기도 부천시 중동 1185-2.,37.4956268,126.7742654,S
(부천시)복사골문구점,032-654-6444,,경기도 부천시 중동 1186,37.49418204,126.7680505,S
(부천시)메디안약국,032-668-7711,,경기도 부천시 중동 1186,37.49418204,126.7680505,S
(부천시)GS25시 편의점,032-657-6945,경기도 부천시 심중로114번길 35,경기도 부천시 중동 1203-7,37.49298291,126.7722155,S
(부천시)최재연헤어모드,032-612-9767,경기도 부천시 심중로132번길 38,경기도 부천시 중동 1204-11,37.49439801,126.7724938,S
(부천시)드림팰리스문구,032-326-5964,,경기도 부천시 중동 1289,37.48984732,126.7675778,S
(부천시)88슈퍼,032-652-5767,경기도 부천시 장말로175번길 28-2,경기도 부천시 중동 733-4,37.49431348,126.7617402,S
(부천시)뉴시티약국,032-664-6565,경기도 부천시 중동로 159,경기도 부천시 중동 749-16,37.49400853,126.7668863,S
(부천시)학생문구,032-655-8599,경기도 부천시 심중로27번길 124,경기도 부천시 중동 819-16,37.48695375,126.7668859,S
(부천시)코사마트 춘의점,032-675-5130,경기도 부천시 길주로391번길 25,경기도 부천시 춘의동 137-1,37.5044513,126.7858307,S
미래팜대학약국,031-717-7570,,경기도 성남시 분당구 구미동,,,F
세븐일레븐(오리역점),031-713-4774,,경기도 성남시 분당구 구미동,,,F
럭키마트,031-715-6462,경기도 성남시 분당구 미금일로 55,경기도 성남시 분당구 구미동 112-2번지 하얀마을6단지 상가,37.34567068,127.1136277,S
GS25시,031-8022-6004,경기도 성남시 분당구 성남대로43번길 10,경기도 성남시 분당구 구미동 158 하나이지타워 107,37.33995458,127.1077399,S
세븐일레븐 분당성우점,031-711-7025,경기도 성남시 분당구 구미로 16,경기도 성남시 분당구 구미동 189-1,37.3376451,127.1109415,S
기린약국,031-711-4771,경기도 성남시 분당구 미금로 48,경기도 성남시 분당구 구미동 205-1,37.33775703,127.1164936,S
김밥천국,031-719-8320,경기도 성남시 분당구 미금로 48,경기도 성남시 분당구 구미동 205-1,37.33775703,127.1164936,S
위너스태권도,,,경기도 성남시 분당구 구미동 211번지 구미동 대림아파트상가 위너스태권도,37.3350898,127.1167153,S
구미문구,031-716-4405,경기도 성남시 분당구 미금로22번길 9,경기도 성남시 분당구 구미동 213,37.33644913,127.1179699,S
분당메디칼 약국,031-717-4151,,경기도 성남시 분당구 구미동 23-1 분당프라자 안,,,F
미금마스터태권도장,031-716-8953,경기도 성남시 분당구 돌마로90번길 4,경기도 성남시 분당구 구미동 25-2 엘레강스프라자 A 705,37.34964598,127.1116584,S
성남구미동우체국,031-712-3004,경기도 성남시 분당구 돌마로90번길 6-3,경기도 성남시 분당구 구미동 27,37.34925876,127.1114322,S
CU(미금먹자골목점),,경기도 성남시 분당구 미금일로86번길 9,경기도 성남시 분당구 구미동 54-12번지,37.34675509,127.1101646,S
분당철물건재,031-717-0964,,경기도 성남시 분당구 금곡동,,,F
크린참 대학약국,031-712-4168,경기도 성남시 분당구 금곡로 233,경기도 성남시 분당구 금곡동 132,37.35325549,127.1154673,S
GS25시(분당성원점),031-717-6395,경기도 성남시 분당구 성남대로 170,경기도 성남시 분당구 금곡동 159 금곡프라자 112 113,37.35108961,127.1094597,S
리마카롱,031-716-2003,경기도 성남시 분당구 정자일로 55,경기도 성남시 분당구 금곡동 192 두산위브 109-103,37.35437273,127.1055929,S
GS25(분당두산위브점),,경기도 성남시 분당구 정자일로 55,경기도 성남시 분당구 금곡동 192번지 109동 104호 금곡동 192,37.3552561,127.1051539,S
GS25시(분당대덕점),031-716-6070,경기도 성남시 분당구 정자일로 25,경기도 성남시 분당구 금곡동 206 대덕프라자2 101호,37.35230939,127.1056014,S
백현홈마트,031-704-7172,경기도 성남시 분당구 판교역로 102,경기도 성남시 분당구 백현동 554,37.39011013,127.1120218,S
한국체육대학교특공무술,031-8017-9702,경기도 성남시 분당구 동판교로 52,경기도 성남시 분당구 백현동 600,37.38769305,127.1145702,S
나라부동산,031-8016-6700,경기도 성남시 분당구 동판교로52번길 5,경기도 성남시 분당구 백현동 604,37.38753086,127.11457,S
라이프마트,031-702-0724,,경기도 성남시 분당구 분당동,,,F
아름문구,031-704-0450,경기도 성남시 분당구 장안로52번길 5,경기도 성남시 분당구 분당동 118-2,37.37070331,127.1450489,S
부연떡집,031-702-0470,경기도 성남시 분당구 수내로 181,경기도 성남시 분당구 분당동 38번지 우방아파트 근린상가,37.37186722,127.1276539,S
GS25 샛별마을 삼부점,031-705-0219,,경기도 성남시 분당구 분당동 39 샛별마을 삼부 아파트 입구상가,,,F
소문난 떡집,031-705-3533,,경기도 성남시 분당구 분당동 39 우방아파트 근린상가,,,F
경희대장안체육관,031-708-6444,경기도 성남시 분당구 장안로 31,경기도 성남시 분당구 분당동 90-5,37.36972402,127.1426876,S
우리약국,031-703-5248,경기도 성남시 분당구 장안로 27,경기도 성남시 분당구 분당동 90-6 101호,37.36964326,127.1424052,S
CU(동판교골드점),,,경기도 성남시 분당구 삼평동 728번지 봇들마을6단지아파트 제4상가동 101호,37.40087135,127.11817,S
CU 판교월드마크점,031-703-0135,경기도 성남시 분당구 대왕판교로606번길 58,경기도 성남시 분당구 삼평동 741번지 월드마크 1동 24호,37.39544264,127.1135992,S
세븐일레븐 동판교점,031-8017-4953,경기도 성남시 분당구 동판교로 153,경기도 성남시 분당구 삼평동 742 8단지 나상가,37.39545002,127.1153271,S
세븐일레븐,031-709-5244,,경기도 성남시 분당구 삼평동 744 9단지 상가,,,F
성남분당우체국,031-721-8014,경기도 성남시 분당구 황새울로 347,경기도 성남시 분당구 서현동 257,37.38678384,127.1229361,S
삼성전자판매점 서현점,031-705-5544,경기도 성남시 분당구 황새울로 340,경기도 성남시 분당구 서현동 262-1 삼성서비스센터,37.38583792,127.1227991,S
중앙약국,031-703-7060,경기도 성남시 분당구 돌마로 478,경기도 성남시 분당구 서현동 298-3 효자촌프라자 102호,37.37689771,127.1333751,S
아람문구,031-708-3575,경기도 성남시 분당구 불정로 361,경기도 성남시 분당구 서현동 301,37.37356297,127.1342725,S
서울동물병원,031-702-5323,경기도 성남시 분당구 불정로 381,경기도 성남시 분당구 서현동 305-1,37.37450636,127.1366564,S
엄마약국,031-707-5440,경기도 성남시 분당구 불정로 379,경기도 성남시 분당구 서현동 305-2 서현프라자 103호,37.37428145,127.1363511,S
다원반찬,,경기도 성남시 분당구 불정로386번길 10,경기도 성남시 분당구 서현동 307 미래타운 상가 1층,37.37311735,127.1379296,S
성남서현2동우체국,031-701-0106,경기도 성남시 분당구 분당로263번길 49,경기도 성남시 분당구 서현동 313,37.3725012,127.1409316,S
APM,031-706-5123,경기도 성남시 분당구 서현로 377,경기도 성남시 분당구 서현동 333-3,37.37653014,127.1397083,S
성남서현1동우체국,031-701-0004,경기도 성남시 분당구 중앙공원로39번길 31,경기도 성남시 분당구 서현동 89-2,37.38261768,127.1263281,S
피자스쿨,031-781-8295,,경기도 성남시 분당구 서현동 89-7 삼성한신상가,37.3814175,127.1280762,S
제일문구,031-702-5905,경기도 성남시 분당구 중앙공원로39번길 7,경기도 성남시 분당구 서현동 89-7번지 삼성한신 상가,37.3814175,127.1280762,S
올림픽스포츠센터,031-708-7486,경기도 성남시 분당구 중앙공원로 35,경기도 성남시 분당구 서현동 90,37.38086721,127.1287076,S
좋은집,031-706-6622,경기도 성남시 분당구 중앙공원로 20,경기도 성남시 분당구 서현동 92,37.37783907,127.1294025,S
현대세탁소,031-708-4950,경기도 성남시 분당구 중앙공원로 20,경기도 성남시 분당구 서현동 92번지,37.37783907,127.1294025,S
정문약국,031-703-3119,경기도 성남시 분당구 중앙공원로40번길 42,경기도 성남시 분당구 서현동 94-3,37.37822359,127.1321016,S
레이스스포츠클럽,031-713-8685,,경기도 성남시 분당구 수내동,,,F
협동조합 행복창작,070-4229-0084,,경기도 성남시 분당구 수내동 24번지 양지마을한양아파트,37.37508782,127.1146532,S
한양세탁소,031-712-1589,,경기도 성남시 분당구 수내동 24번지 양지마을한양아파트,37.37508782,127.1146532,S
안경박사,031-711-8646,,경기도 성남시 분당구 수내동 32-1 금호상가 167호,,,F
세븐일레븐 초림점,031-712-9165,경기도 성남시 분당구 내정로165번길 50,경기도 성남시 분당구 수내동 33-1,37.3770603,127.1154351,S
